{"type":"FeatureCollection","features":[{"type":"Feature","geometry":{"type":"LineString","coordinates":[[-70.96160894027875,42.44920519828166],[-70.96160894027875,42.44920519828166]]},"properties":{"dataset":"route","status":"ACTIVE","tags":["boston-ma-metro-walmarts"],"address":"780 Lynnway","city":"Lynn","state":"MA","postalCode":"01905","name":"Walmart"}},{"type":"Feature","geometry":{"type":"LineString","coordinates":[[-71.02372860069163,42.472177296392594],[-71.02372860069163,42.472177296392594]]},"properties":{"dataset":"route","status":"ACTIVE","tags":["boston-ma-metro-walmarts"],"address":"770 Broadway","city":"Saugus","state":"MA","postalCode":"01906","name":"Walmart Supercenter"}},{"type":"Feature","geometry":{"type":"LineString","coordinates":[[-70.98666449044974,42.23651180002444],[-70.98666449044974,42.23651180002444]]},"properties":{"dataset":"route","status":"ACTIVE","tags":["boston-ma-metro-walmarts"],"address":"301 Falls Blvd","city":"Quincy","state":"MA","postalCode":"02169","name":"Walmart"}},{"type":"Feature","geometry":{"type":"LineString","coordinates":[[-70.93486318180533,42.49420480666104],[-70.93486318180533,42.49420480666104]]},"properties":{"dataset":"route","status":"ACTIVE","tags":["boston-ma-metro-walmarts"],"address":"450 Highland Ave","city":"Salem","state":"MA","postalCode":"01970","name":"Walmart"}},{"type":"Feature","geometry":{"type":"LineString","coordinates":[[-71.1125681518898,42.57050927575395],[-71.1125681518898,42.57050927575395]]},"properties":{"dataset":"route","status":"ACTIVE","tags":["boston-ma-metro-walmarts"],"address":"72 Main St","city":"North Reading","state":"MA","postalCode":"01864","name":"Walmart"}},{"type":"Feature","geometry":{"type":"LineString","coordinates":[[-71.39928065272282,42.300547665080046],[-71.39928065272282,42.300547665080046]]},"properties":{"dataset":"route","status":"ACTIVE","tags":["boston-ma-metro-walmarts"],"address":"121 Worcester Rd","city":"Framingham","state":"MA","postalCode":"01701","name":"Walmart"}},{"type":"Feature","geometry":{"type":"LineString","coordinates":[[-71.21468697375569,42.142437401921335],[-71.21468697375569,42.142437401921335]]},"properties":{"dataset":"route","status":"ACTIVE","tags":["boston-ma-metro-walmarts"],"address":"550 Providence Hwy","city":"Walpole","state":"MA","postalCode":"02081","name":"Walmart Supercenter"}},{"type":"Feature","geometry":{"type":"LineString","coordinates":[[-70.94472817484866,42.199574343136035],[-70.94472817484866,42.199574343136035]]},"properties":{"dataset":"route","status":"ACTIVE","tags":["boston-ma-metro-walmarts"],"address":"740 Middle St","city":"Weymouth","state":"MA","postalCode":"02188","name":"Walmart"}},{"type":"Feature","geometry":{"type":"LineString","coordinates":[[-70.9675284936481,42.55463531897802],[-70.9675284936481,42.55463531897802]]},"properties":{"dataset":"route","status":"ACTIVE","tags":["boston-ma-metro-walmarts"],"address":"55 Brooksby Village Way","city":"Danvers","state":"MA","postalCode":"01923","name":"Walmart"}},{"type":"Feature","geometry":{"type":"LineString","coordinates":[[-71.05661462321501,42.098441423671716],[-71.05661462321501,42.098441423671716]]},"properties":{"dataset":"route","status":"ACTIVE","tags":["boston-ma-metro-walmarts"],"address":"700 Oak St","city":"Brockton","state":"MA","postalCode":"02301","name":"Walmart"}},{"type":"Feature","geometry":{"type":"LineString","coordinates":[[-71.03082732996947,42.121297164867414],[-71.03082732996947,42.121297164867414]]},"properties":{"dataset":"route","status":"ACTIVE","tags":["boston-ma-metro-walmarts"],"address":"30 Memorial Dr","city":"Avon","state":"MA","postalCode":"02322","name":"Walmart Supercenter"}},{"type":"Feature","geometry":{"type":"LineString","coordinates":[[-71.3609492201851,42.622866531594944],[-71.3609492201851,42.622866531594944]]},"properties":{"dataset":"route","status":"ACTIVE","tags":["boston-ma-metro-walmarts"],"address":"66 Parkhurst Rd","city":"Chelmsford","state":"MA","postalCode":"01824","name":"Walmart"}},{"type":"Feature","geometry":{"type":"LineString","coordinates":[[-70.96886285822173,42.09564406578198],[-70.96886285822173,42.09564406578198]]},"properties":{"dataset":"route","status":"ACTIVE","tags":["boston-ma-metro-walmarts"],"address":"777 Brockton Ave","city":"Abington","state":"MA","postalCode":"02351","name":"Walmart"}},{"type":"Feature","geometry":{"type":"LineString","coordinates":[[-71.26877466018871,42.62296601655967],[-71.26877466018871,42.62296601655967]]},"properties":{"dataset":"route","status":"ACTIVE","tags":["boston-ma-metro-walmarts"],"address":"333 Main St","city":"Tewksbury","state":"MA","postalCode":"01876","name":"Walmart Supercenter"}},{"type":"Feature","geometry":{"type":"LineString","coordinates":[[-71.46454437680198,42.11592951199131],[-71.46454437680198,42.11592951199131]]},"properties":{"dataset":"route","status":"ACTIVE","tags":["boston-ma-metro-walmarts"],"address":"250 Hartford Ave","city":"Bellingham","state":"MA","postalCode":"02019","name":"Walmart"}},{"type":"Feature","geometry":{"type":"LineString","coordinates":[[-71.55960338853,42.37321540407079],[-71.55960338853,42.37321540407079]]},"properties":{"dataset":"route","status":"ACTIVE","tags":["boston-ma-metro-walmarts"],"address":"280 Washington St","city":"Hudson","state":"MA","postalCode":"01749","name":"Walmart Supercenter"}},{"type":"Feature","geometry":{"type":"LineString","coordinates":[[-71.1649968960664,42.74282628728353],[-71.1649968960664,42.74282628728353]]},"properties":{"dataset":"route","status":"ACTIVE","tags":["boston-ma-metro-walmarts"],"address":"70 Pleasant Valley St","city":"Methuen","state":"MA","postalCode":"01844","name":"Walmart"}},{"type":"Feature","geometry":{"type":"LineString","coordinates":[[-70.84577772268052,41.99710385941959],[-70.84577772268052,41.99710385941959]]},"properties":{"dataset":"route","status":"ACTIVE","tags":["boston-ma-metro-walmarts"],"address":"295 Plymouth St","city":"Halifax","state":"MA","postalCode":"02338","name":"Walmart Supercenter"}},{"type":"Feature","geometry":{"type":"LineString","coordinates":[[-71.03297215096755,41.90390770534168],[-71.03297215096755,41.90390770534168]]},"properties":{"dataset":"route","status":"ACTIVE","tags":["boston-ma-metro-walmarts"],"address":"36 Paramount Dr","city":"Raynham","state":"MA","postalCode":"02767","name":"Walmart Supercenter"}},{"type":"Feature","geometry":{"type":"LineString","coordinates":[[-71.0853715218714,41.93500049016614],[-71.0853715218714,41.93500049016614]]},"properties":{"dataset":"route","status":"ACTIVE","tags":["boston-ma-metro-walmarts"],"address":"160 Broadway","city":"Raynham","state":"MA","postalCode":"02767","name":"Walmart Supercenter"}}]}