{"type":"FeatureCollection","features":[{"type":"Feature","geometry":{"type":"Point","coordinates":[-71.09996097636629,42.34412519096285],"properties":{"address":"1341 Boylston St","city":"Boston","state":"MA","postalCode":"02215","name":"Target"}}},{"type":"Feature","geometry":{"type":"Point","coordinates":[-71.06317520141602,42.329306587948814],"properties":{"address":"7 Allstate Rd","city":"Dorchester","state":"MA","postalCode":"02125","name":"Target"}}},{"type":"Feature","geometry":{"type":"Point","coordinates":[-71.09056338735469,42.37681282245501],"properties":{"address":"180 Somerville Ave","city":"Somerville","state":"MA","postalCode":"02143","name":"Target"}}},{"type":"Feature","geometry":{"type":"Point","coordinates":[-71.06267,42.361032],"properties":{"address":"100 Cambridge St","city":"Boston","state":"MA","postalCode":"02114","name":"Target"}}},{"type":"Feature","geometry":{"type":"Point","coordinates":[-71.07189839295629,42.39895318678095],"properties":{"address":"1 Mystic View Rd","city":"Everett","state":"MA","postalCode":"02149","name":"Target"}}},{"type":"Feature","geometry":{"type":"Point","coordinates":[-71.114038105589,42.35064489239271],"properties":{"address":"860 Commonwealth Ave","city":"Boston","state":"MA","postalCode":"02215","name":"Target"}}},{"type":"Feature","geometry":{"type":"Point","coordinates":[-71.00043376182616,42.39981456360913],"properties":{"address":"36 Furlong Dr","city":"Revere","state":"MA","postalCode":"02151","name":"Target"}}},{"type":"Feature","geometry":{"type":"Point","coordinates":[-71.02414567324344,42.481821697042314],"properties":{"address":"400 Lynn Fells Pkwy","city":"Saugus","state":"MA","postalCode":"01906","name":"Target"}}},{"type":"Feature","geometry":{"type":"Point","coordinates":[-71.13517344885217,42.51823912000398],"properties":{"address":"101 Commerce Way","city":"Woburn","state":"MA","postalCode":"01801","name":"Target"}}},{"type":"Feature","geometry":{"type":"Point","coordinates":[-71.39803235924269,42.305165089963886],"properties":{"address":"400 Cochituate Rd","city":"Framingham","state":"MA","postalCode":"01701","name":"Target"}}},{"type":"Feature","geometry":{"type":"Point","coordinates":[-70.91950068270205,42.50343146904291],"properties":{"address":"227 Highland Ave","city":"Salem","state":"MA","postalCode":"01970","name":"Target"}}},{"type":"Feature","geometry":{"type":"Point","coordinates":[-70.9374785,42.5533511],"properties":{"address":"240 Independence Way","city":"Danvers","state":"MA","postalCode":"01923","name":"Target"}}},{"type":"Feature","geometry":{"type":"Point","coordinates":[-71.0725193,42.1522295],"properties":{"address":"1 Hawes Way","city":"Stoughton","state":"MA","postalCode":"02072","name":"Target"}}},{"type":"Feature","geometry":{"type":"Point","coordinates":[-71.0992668,42.3446963],"properties":{"address":"1341 Boylston St","city":"Boston","state":"MA","postalCode":"02215","name":"Target Optical"}}},{"type":"Feature","geometry":{"type":"Point","coordinates":[-71.15656702369179,42.36421602383167],"properties":{"address":"550 Arsenal St","city":"Watertown","state":"MA","postalCode":"02472","name":"Target"}}},{"type":"Feature","geometry":{"type":"Point","coordinates":[-71.08202299999999,42.390902000000004],"properties":{"address":"5 Middlesex Ave","city":"Somerville","state":"MA","postalCode":"02145","name":"Target International Student Center"}}},{"type":"Feature","geometry":{"type":"Point","coordinates":[-71.02044733333334,42.38521333333333],"properties":{"address":"580 Chelsea St","city":"East Boston","state":"MA","postalCode":"02128","name":"Target Logistic Services"}}},{"type":"Feature","geometry":{"type":"Point","coordinates":[-71.31760677126037,42.62385136385949],"properties":{"address":"181 Plain St","city":"Lowell","state":"MA","postalCode":"01852","name":"Target"}}},{"type":"Feature","geometry":{"type":"Point","coordinates":[-71.1026234695315,42.364612018767104],"properties":{"address":"564 Massachusetts Ave","city":"Cambridge","state":"MA","postalCode":"02139","name":"Target"}}},{"type":"Feature","geometry":{"type":"Point","coordinates":[-71.08895858327209,42.423039813864605],"properties":{"address":"471 Salem St","city":"Medford","state":"MA","postalCode":"02155","name":"Target"}}},{"type":"Feature","geometry":{"type":"Point","coordinates":[-71.1186213380521,42.388595647038606],"properties":{"address":"822 Somerville Ave","city":"Cambridge","state":"MA","postalCode":"02140","name":"Target"}}},{"type":"Feature","geometry":{"type":"Point","coordinates":[-71.072424,42.398775],"properties":{"address":"1 Mystic View Rd","city":"Everett","state":"MA","postalCode":"02149","name":"Target Optical"}}},{"type":"Feature","geometry":{"type":"Point","coordinates":[-71.05560302734375,42.29676055908203],"properties":{"address":"500 Geneva Ave","city":"Boston","state":"MA","postalCode":"02122","name":"Target"}}},{"type":"Feature","geometry":{"type":"Point","coordinates":[-70.83869154643394,42.13747612704604],"properties":{"address":"1167 Washington St","city":"Hanover","state":"MA","postalCode":"02339","name":"Target"}}},{"type":"Feature","geometry":{"type":"Point","coordinates":[-71.02189913500285,42.22135073436039],"properties":{"address":"250 Granite St","city":"Braintree","state":"MA","postalCode":"02184","name":"Target"}}},{"type":"Feature","geometry":{"type":"Point","coordinates":[-71.05866400000001,42.334464000000004],"properties":{"address":"2 Alger St","city":"Boston","state":"MA","postalCode":"02127","name":"Target Offsite"}}},{"type":"Feature","geometry":{"type":"Point","coordinates":[-71.1438898404676,42.027231778352366],"properties":{"address":"41 Robert Dr","city":"South Easton","state":"MA","postalCode":"02375","name":"Target"}}},{"type":"Feature","geometry":{"type":"Point","coordinates":[-70.92786632301757,42.110507898987514],"properties":{"address":"385 Centre Ave","city":"Abington","state":"MA","postalCode":"02351","name":"Target"}}},{"type":"Feature","geometry":{"type":"Point","coordinates":[-71.12569599999999,42.351914],"properties":{"address":"1105 Commonwealth Ave Fl 2","city":"Boston","state":"MA","postalCode":"02215","name":"Target International Student Center"}}},{"type":"Feature","geometry":{"type":"Point","coordinates":[-71.50508324591003,42.34870935733594],"properties":{"address":"605 Boston Post Rd E","city":"Marlborough","state":"MA","postalCode":"01752","name":"Target"}}}]}