{"type":"FeatureCollection","features":[{"type":"Feature","geometry":{"type":"LineString","coordinates":[[-87.74705526651722,41.83097487653966],[-87.74705526651722,41.83097487653966]]},"properties":{"dataset":"route","status":"ACTIVE","tags":["chicago-il-metro-walmarts"],"address":"3320 South Cicero Avenue","city":"Cicero","state":"IL","postalCode":"60804","name":"Walmart Supercenter"}},{"type":"Feature","geometry":{"type":"LineString","coordinates":[[-87.71932478589865,42.012933770341846],[-87.71932478589865,42.012933770341846]]},"properties":{"dataset":"route","status":"ACTIVE","tags":["chicago-il-metro-walmarts"],"address":"3626 Touhy Ave","city":"Skokie","state":"IL","postalCode":"60076","name":"Walmart Supercenter"}},{"type":"Feature","geometry":{"type":"LineString","coordinates":[[-87.74301512169409,41.911461330738085],[-87.74301512169409,41.911461330738085]]},"properties":{"dataset":"route","status":"ACTIVE","tags":["chicago-il-metro-walmarts"],"address":"4650 W North Ave","city":"Chicago","state":"IL","postalCode":"60639","name":"Walmart Supercenter"}},{"type":"Feature","geometry":{"type":"LineString","coordinates":[[-87.81757116154422,41.862301018999496],[-87.81757116154422,41.862301018999496]]},"properties":{"dataset":"route","status":"ACTIVE","tags":["chicago-il-metro-walmarts"],"address":"1300 Des Plaines Ave","city":"Forest Park","state":"IL","postalCode":"60130","name":"Walmart Supercenter"}},{"type":"Feature","geometry":{"type":"LineString","coordinates":[[-87.86326135914244,41.778052820158834],[-87.86326135914244,41.778052820158834]]},"properties":{"dataset":"route","status":"ACTIVE","tags":["chicago-il-metro-walmarts"],"address":"9450 Joliet Rd","city":"Hodgkins","state":"IL","postalCode":"60525","name":"Walmart Supercenter"}},{"type":"Feature","geometry":{"type":"LineString","coordinates":[[-87.76900510044153,42.01447152539771],[-87.76900510044153,42.01447152539771]]},"properties":{"dataset":"route","status":"ACTIVE","tags":["chicago-il-metro-walmarts"],"address":"5630 W Touhy Ave","city":"Niles","state":"IL","postalCode":"60714","name":"Walmart"}},{"type":"Feature","geometry":{"type":"LineString","coordinates":[[-87.59884456657021,41.69670690121003],[-87.59884456657021,41.69670690121003]]},"properties":{"dataset":"route","status":"ACTIVE","tags":["chicago-il-metro-walmarts"],"address":"10900 S. Doty Avenue","city":"Chicago","state":"IL","postalCode":"60628","name":"Walmart Supercenter"}},{"type":"Feature","geometry":{"type":"LineString","coordinates":[[-87.68608383382679,41.72191089696253],[-87.68608383382679,41.72191089696253]]},"properties":{"dataset":"route","status":"ACTIVE","tags":["chicago-il-metro-walmarts"],"address":"2500 W 95th St","city":"Evergreen Park","state":"IL","postalCode":"60805","name":"Walmart Supercenter"}},{"type":"Feature","geometry":{"type":"LineString","coordinates":[[-87.73458673724839,41.64831997778338],[-87.73458673724839,41.64831997778338]]},"properties":{"dataset":"route","status":"ACTIVE","tags":["chicago-il-metro-walmarts"],"address":"4700 135th St","city":"Crestwood","state":"IL","postalCode":"60445","name":"Walmart Supercenter"}},{"type":"Feature","geometry":{"type":"LineString","coordinates":[[-87.74487815020079,41.7654429314178],[-87.74487815020079,41.7654429314178]]},"properties":{"dataset":"route","status":"ACTIVE","tags":["chicago-il-metro-walmarts"],"address":"7050 S Cicero Ave","city":"Bedford Park","state":"IL","postalCode":"60638","name":"Walmart Supercenter"}},{"type":"Feature","geometry":{"type":"LineString","coordinates":[[-87.74289731714221,41.934503898379305],[-87.74289731714221,41.934503898379305]]},"properties":{"dataset":"route","status":"ACTIVE","tags":["chicago-il-metro-walmarts"],"address":"4626 W Diversey Ave","city":"Chicago","state":"IL","postalCode":"60639","name":"Walmart Supercenter"}},{"type":"Feature","geometry":{"type":"LineString","coordinates":[[-87.9090138508729,41.90496762224198],[-87.9090138508729,41.90496762224198]]},"properties":{"dataset":"route","status":"ACTIVE","tags":["chicago-il-metro-walmarts"],"address":"137 W North Ave","city":"Northlake","state":"IL","postalCode":"60164","name":"Walmart"}},{"type":"Feature","geometry":{"type":"LineString","coordinates":[[-87.79980525132711,41.70676657028284],[-87.79980525132711,41.70676657028284]]},"properties":{"dataset":"route","status":"ACTIVE","tags":["chicago-il-metro-walmarts"],"address":"10260 S Harlem Ave","city":"Bridgeview","state":"IL","postalCode":"60455","name":"Walmart"}},{"type":"Feature","geometry":{"type":"LineString","coordinates":[[-87.63302961038421,41.74054743244901],[-87.63302961038421,41.74054743244901]]},"properties":{"dataset":"route","status":"ACTIVE","tags":["chicago-il-metro-walmarts"],"address":"8331 S Stewart Ave","city":"Chicago","state":"IL","postalCode":"60620","name":"Walmart Supercenter"}},{"type":"Feature","geometry":{"type":"LineString","coordinates":[[-87.51954641676525,41.69293290414985],[-87.51954641676525,41.69293290414985]]},"properties":{"dataset":"route","status":"ACTIVE","tags":["chicago-il-metro-walmarts"],"address":"1100 5th Ave","city":"Hammond","state":"IN","postalCode":"46320","name":"Walmart Supercenter"}},{"type":"Feature","geometry":{"type":"LineString","coordinates":[[-87.83565013283238,42.056279761625206],[-87.83565013283238,42.056279761625206]]},"properties":{"dataset":"route","status":"ACTIVE","tags":["chicago-il-metro-walmarts"],"address":"8500 W Golf Rd","city":"Niles","state":"IL","postalCode":"60714","name":"Walmart Supercenter"}},{"type":"Feature","geometry":{"type":"LineString","coordinates":[[-87.99999991638556,41.749222069900064],[-87.99999991638556,41.749222069900064]]},"properties":{"dataset":"route","status":"ACTIVE","tags":["chicago-il-metro-walmarts"],"address":"2189 75th St","city":"Darien","state":"IL","postalCode":"60561","name":"Walmart Supercenter"}},{"type":"Feature","geometry":{"type":"LineString","coordinates":[[-87.48209981911579,41.5693829305516],[-87.48209981911579,41.5693829305516]]},"properties":{"dataset":"route","status":"ACTIVE","tags":["chicago-il-metro-walmarts"],"address":"Cabela's Drive","city":"Hammond","state":"IN","postalCode":"46324","name":"Walmart"}},{"type":"Feature","geometry":{"type":"LineString","coordinates":[[-88.0563361388952,41.828770899632566],[-88.0563361388952,41.828770899632566]]},"properties":{"dataset":"route","status":"ACTIVE","tags":["chicago-il-metro-walmarts"],"address":"3s100 Route 53","city":"Glen Ellyn","state":"IL","postalCode":"60137","name":"Walmart Supercenter"}},{"type":"Feature","geometry":{"type":"LineString","coordinates":[[-87.99965098391614,42.05357142823788],[-87.99965098391614,42.05357142823788]]},"properties":{"dataset":"route","status":"ACTIVE","tags":["chicago-il-metro-walmarts"],"address":"1460 Golf Rd","city":"Rolling Meadows","state":"IL","postalCode":"60008","name":"Walmart"}},{"type":"Feature","geometry":{"type":"LineString","coordinates":[[-87.96282204881774,41.872215851778854],[-87.96282204881774,41.872215851778854]]},"properties":{"dataset":"route","status":"ACTIVE","tags":["chicago-il-metro-walmarts"],"address":"900 South Route 83","city":"Villa Park","state":"IL","postalCode":"60181","name":"Walmart Supercenter"}},{"type":"Feature","geometry":{"type":"LineString","coordinates":[[-88.04397904243899,42.00147971284814],[-88.04397904243899,42.00147971284814]]},"properties":{"dataset":"route","status":"ACTIVE","tags":["chicago-il-metro-walmarts"],"address":"801 Meacham Rd","city":"Elk Grove Village","state":"IL","postalCode":"60007","name":"Walmart Supercenter"}},{"type":"Feature","geometry":{"type":"LineString","coordinates":[[-87.7117691040039,42.00550842285156],[-87.7117691040039,42.00550842285156]]},"properties":{"dataset":"route","status":"ACTIVE","tags":["chicago-il-metro-walmarts"],"address":"6840 N Mccormick Blvd","city":"Lincolnwood","state":"IL","postalCode":"60712","name":"Walmart Pickup"}},{"type":"Feature","geometry":{"type":"LineString","coordinates":[[-88.03379389441305,41.94976697728162],[-88.03379389441305,41.94976697728162]]},"properties":{"dataset":"route","status":"ACTIVE","tags":["chicago-il-metro-walmarts"],"address":"1050 N Rohlwing Rd","city":"Addison","state":"IL","postalCode":"60101","name":"Walmart Supercenter"}},{"type":"Feature","geometry":{"type":"LineString","coordinates":[[-87.92336957501269,42.06889843356502],[-87.92336957501269,42.06889843356502]]},"properties":{"dataset":"route","status":"ACTIVE","tags":["chicago-il-metro-walmarts"],"address":"930 Mount Prospect Plz","city":"Mount Prospect","state":"IL","postalCode":"60056","name":"Walmart Supercenter"}},{"type":"Feature","geometry":{"type":"LineString","coordinates":[[-87.71649649800322,41.58375820461437],[-87.71649649800322,41.58375820461437]]},"properties":{"dataset":"route","status":"ACTIVE","tags":["chicago-il-metro-walmarts"],"address":"4005 167th St","city":"Country Club Hills","state":"IL","postalCode":"60478","name":"Walmart Supercenter"}},{"type":"Feature","geometry":{"type":"LineString","coordinates":[[-87.84319243190261,41.59925639031027],[-87.84319243190261,41.59925639031027]]},"properties":{"dataset":"route","status":"ACTIVE","tags":["chicago-il-metro-walmarts"],"address":"9265 159th St","city":"Orland Hills","state":"IL","postalCode":"60487","name":"Walmart Supercenter"}},{"type":"Feature","geometry":{"type":"LineString","coordinates":[[-87.9519721646519,42.15247522510855],[-87.9519721646519,42.15247522510855]]},"properties":{"dataset":"route","status":"ACTIVE","tags":["chicago-il-metro-walmarts"],"address":"1455 E Lake Cook Rd","city":"Wheeling","state":"IL","postalCode":"60090","name":"Walmart Supercenter"}},{"type":"Feature","geometry":{"type":"LineString","coordinates":[[-87.55533596526936,41.574857929912206],[-87.55533596526936,41.574857929912206]]},"properties":{"dataset":"route","status":"ACTIVE","tags":["chicago-il-metro-walmarts"],"address":"17625 Torrence Ave","city":"Lansing","state":"IL","postalCode":"60438","name":"Walmart Supercenter"}},{"type":"Feature","geometry":{"type":"LineString","coordinates":[[-87.67724237676552,41.50756996737906],[-87.67724237676552,41.50756996737906]]},"properties":{"dataset":"route","status":"ACTIVE","tags":["chicago-il-metro-walmarts"],"address":"21000 Western Ave","city":"Olympia Fields","state":"IL","postalCode":"60461","name":"Walmart Supercenter"}}]}