{"type":"FeatureCollection","features":[{"type":"Feature","geometry":{"type":"LineString","coordinates":[[-87.63098943183968,41.868379072280334],[-87.63098943183968,41.868379072280334]]},"properties":{"dataset":"route","status":"ACTIVE","tags":["chicago-il-metro-targets"],"address":"1154 S Clark St","city":"Chicago","state":"IL","postalCode":"60605","name":"Target"}},{"type":"Feature","geometry":{"type":"LineString","coordinates":[[-87.62755,41.881958],[-87.62755,41.881958]]},"properties":{"dataset":"route","status":"ACTIVE","tags":["chicago-il-metro-targets"],"address":"1 S State St","city":"Chicago","state":"IL","postalCode":"60603","name":"Target"}},{"type":"Feature","geometry":{"type":"LineString","coordinates":[[-87.65483267587643,41.87757605246648],[-87.65483267587643,41.87757605246648]]},"properties":{"dataset":"route","status":"ACTIVE","tags":["chicago-il-metro-targets"],"address":"1101 W Jackson Blvd","city":"Chicago","state":"IL","postalCode":"60607","name":"Target"}},{"type":"Feature","geometry":{"type":"LineString","coordinates":[[-87.67479548019479,41.835711107823805],[-87.67479548019479,41.835711107823805]]},"properties":{"dataset":"route","status":"ACTIVE","tags":["chicago-il-metro-targets"],"address":"1940 W 33rd St","city":"Chicago","state":"IL","postalCode":"60608","name":"Target"}},{"type":"Feature","geometry":{"type":"LineString","coordinates":[[-87.68518621029065,41.929271709209594],[-87.68518621029065,41.929271709209594]]},"properties":{"dataset":"route","status":"ACTIVE","tags":["chicago-il-metro-targets"],"address":"2656 N Elston Ave","city":"Chicago","state":"IL","postalCode":"60647","name":"Target"}},{"type":"Feature","geometry":{"type":"LineString","coordinates":[[-87.61760530907239,41.89084189285226],[-87.61760530907239,41.89084189285226]]},"properties":{"dataset":"route","status":"ACTIVE","tags":["chicago-il-metro-targets"],"address":"401 E Illinois St","city":"Chicago","state":"IL","postalCode":"60611","name":"Target"}},{"type":"Feature","geometry":{"type":"LineString","coordinates":[[-87.65648296705125,41.96336523422474],[-87.65648296705125,41.96336523422474]]},"properties":{"dataset":"route","status":"ACTIVE","tags":["chicago-il-metro-targets"],"address":"4466 N Broadway St","city":"Chicago","state":"IL","postalCode":"60640","name":"Target"}},{"type":"Feature","geometry":{"type":"LineString","coordinates":[[-87.70205497741699,41.94589487395117],[-87.70205497741699,41.94589487395117]]},"properties":{"dataset":"route","status":"ACTIVE","tags":["chicago-il-metro-targets"],"address":"2939 W Addison St","city":"Chicago","state":"IL","postalCode":"60618","name":"Target"}},{"type":"Feature","geometry":{"type":"LineString","coordinates":[[-87.68302068813584,41.99078007613988],[-87.68302068813584,41.99078007613988]]},"properties":{"dataset":"route","status":"ACTIVE","tags":["chicago-il-metro-targets"],"address":"2112 W Peterson Ave","city":"Chicago","state":"IL","postalCode":"60659","name":"Target"}},{"type":"Feature","geometry":{"type":"LineString","coordinates":[[-87.72584459847974,41.721774153214916],[-87.72584459847974,41.721774153214916]]},"properties":{"dataset":"route","status":"ACTIVE","tags":["chicago-il-metro-targets"],"address":"4120 W 95th St","city":"Oak Lawn","state":"IL","postalCode":"60453","name":"Target"}},{"type":"Feature","geometry":{"type":"LineString","coordinates":[[-87.722548,41.812935],[-87.722548,41.812935]]},"properties":{"dataset":"route","status":"ACTIVE","tags":["chicago-il-metro-targets"],"address":"4433 S Pulaski Rd","city":"Chicago","state":"IL","postalCode":"60632","name":"Target"}},{"type":"Feature","geometry":{"type":"LineString","coordinates":[[-87.80889258753918,41.95395566670024],[-87.80889258753918,41.95395566670024]]},"properties":{"dataset":"route","status":"ACTIVE","tags":["chicago-il-metro-targets"],"address":"4050 N Harlem Ave","city":"Norridge","state":"IL","postalCode":"60706","name":"Target"}},{"type":"Feature","geometry":{"type":"LineString","coordinates":[[-87.88667667778651,42.00644210123295],[-87.88667667778651,42.00644210123295]]},"properties":{"dataset":"route","status":"ACTIVE","tags":["chicago-il-metro-targets"],"address":"7000 Mannheim Rd","city":"Rosemont","state":"IL","postalCode":"60018","name":"Target"}},{"type":"Feature","geometry":{"type":"LineString","coordinates":[[-87.78037770169608,42.012573636810124],[-87.78037770169608,42.012573636810124]]},"properties":{"dataset":"route","status":"ACTIVE","tags":["chicago-il-metro-targets"],"address":"6150 W Touhy Ave","city":"Niles","state":"IL","postalCode":"60714","name":"Target"}},{"type":"Feature","geometry":{"type":"LineString","coordinates":[[-87.70529419155997,42.020462401604405],[-87.70529419155997,42.020462401604405]]},"properties":{"dataset":"route","status":"ACTIVE","tags":["chicago-il-metro-targets"],"address":"2209 Howard St","city":"Evanston","state":"IL","postalCode":"60202","name":"Target"}},{"type":"Feature","geometry":{"type":"LineString","coordinates":[[-87.74152330314608,41.83937187088465],[-87.74152330314608,41.83937187088465]]},"properties":{"dataset":"route","status":"ACTIVE","tags":["chicago-il-metro-targets"],"address":"2901 S Cicero Ave","city":"Cicero","state":"IL","postalCode":"60804","name":"Target"}},{"type":"Feature","geometry":{"type":"LineString","coordinates":[[-87.85083243500085,41.85469294558427],[-87.85083243500085,41.85469294558427]]},"properties":{"dataset":"route","status":"ACTIVE","tags":["chicago-il-metro-targets"],"address":"800 Broadview Village Sq","city":"Broadview","state":"IL","postalCode":"60155","name":"Target"}},{"type":"Feature","geometry":{"type":"LineString","coordinates":[[-87.8440313682834,41.90549054980331],[-87.8440313682834,41.90549054980331]]},"properties":{"dataset":"route","status":"ACTIVE","tags":["chicago-il-metro-targets"],"address":"850 W North Ave","city":"Melrose Park","state":"IL","postalCode":"60160","name":"Target"}},{"type":"Feature","geometry":{"type":"LineString","coordinates":[[-87.74272859546345,41.762821424585646],[-87.74272859546345,41.762821424585646]]},"properties":{"dataset":"route","status":"ACTIVE","tags":["chicago-il-metro-targets"],"address":"7100 S Cicero Ave","city":"Chicago","state":"IL","postalCode":"60629","name":"Target"}},{"type":"Feature","geometry":{"type":"LineString","coordinates":[[-87.6434699579285,41.90397392401289],[-87.6434699579285,41.90397392401289]]},"properties":{"dataset":"route","status":"ACTIVE","tags":["chicago-il-metro-targets"],"address":"1200 N Larrabee St","city":"Chicago","state":"IL","postalCode":"60610","name":"Target"}},{"type":"Feature","geometry":{"type":"LineString","coordinates":[[-87.94328437040426,41.75012948575868],[-87.94328437040426,41.75012948575868]]},"properties":{"dataset":"route","status":"ACTIVE","tags":["chicago-il-metro-targets"],"address":"7601 Kingery Hwy","city":"Willowbrook","state":"IL","postalCode":"60527","name":"Target"}},{"type":"Feature","geometry":{"type":"LineString","coordinates":[[-87.78917426816923,41.92957995442745],[-87.78917426816923,41.92957995442745]]},"properties":{"dataset":"route","status":"ACTIVE","tags":["chicago-il-metro-targets"],"address":"6525 W Diversey Ave","city":"Chicago","state":"IL","postalCode":"60707","name":"Target"}},{"type":"Feature","geometry":{"type":"LineString","coordinates":[[-87.63293340267542,41.89299983334689],[-87.63293340267542,41.89299983334689]]},"properties":{"dataset":"route","status":"ACTIVE","tags":["chicago-il-metro-targets"],"address":"630 N. LaSalle Dr","city":"Chicago","state":"IL","postalCode":"60654","name":"Target"}},{"type":"Feature","geometry":{"type":"LineString","coordinates":[[-87.81398707527363,42.102535845695634],[-87.81398707527363,42.102535845695634]]},"properties":{"dataset":"route","status":"ACTIVE","tags":["chicago-il-metro-targets"],"address":"2241 Willow Rd","city":"Glenview","state":"IL","postalCode":"60025","name":"Target"}},{"type":"Feature","geometry":{"type":"LineString","coordinates":[[-87.86007298316244,41.780660912973445],[-87.86007298316244,41.780660912973445]]},"properties":{"dataset":"route","status":"ACTIVE","tags":["chicago-il-metro-targets"],"address":"9250 Joliet Rd","city":"Hodgkins","state":"IL","postalCode":"60525","name":"Target"}},{"type":"Feature","geometry":{"type":"LineString","coordinates":[[-87.8389351477599,42.052712380096914],[-87.8389351477599,42.052712380096914]]},"properties":{"dataset":"route","status":"ACTIVE","tags":["chicago-il-metro-targets"],"address":"239 Golf Mill Ctr","city":"Niles","state":"IL","postalCode":"60714","name":"Target"}},{"type":"Feature","geometry":{"type":"LineString","coordinates":[[-87.88726,41.867935],[-87.88726,41.867935]]},"properties":{"dataset":"route","status":"ACTIVE","tags":["chicago-il-metro-targets"],"address":"130 S Mannheim Rd","city":"Hillside","state":"IL","postalCode":"60162","name":"Target"}},{"type":"Feature","geometry":{"type":"LineString","coordinates":[[-88.00289880363815,41.844370829531776],[-88.00289880363815,41.844370829531776]]},"properties":{"dataset":"route","status":"ACTIVE","tags":["chicago-il-metro-targets"],"address":"60 Yorktown Shopping Ctr","city":"Lombard","state":"IL","postalCode":"60148","name":"Target"}},{"type":"Feature","geometry":{"type":"LineString","coordinates":[[-87.7959805727005,41.5451955770346],[-87.7959805727005,41.5451955770346]]},"properties":{"dataset":"route","status":"ACTIVE","tags":["chicago-il-metro-targets"],"address":"7300 191st St","city":"Tinley Park","state":"IL","postalCode":"60487","name":"Target"}},{"type":"Feature","geometry":{"type":"LineString","coordinates":[[-87.74640530347824,41.65685665980273],[-87.74640530347824,41.65685665980273]]},"properties":{"dataset":"route","status":"ACTIVE","tags":["chicago-il-metro-targets"],"address":"5071 Cal Sag Rd","city":"Crestwood","state":"IL","postalCode":"60445","name":"Target"}}]}