{"type":"FeatureCollection","features":[{"type":"Feature","geometry":{"type":"LineString","coordinates":[[-96.84037287928103,32.92200057459249],[-96.84037287928103,32.92200057459249]]},"properties":{"dataset":"route","status":"ACTIVE","tags":["dallas-tx-metro-walmarts"],"address":"4122 Lyndon B Johnson Fwy","city":"Dallas","state":"TX","postalCode":"75244","name":"Walmart"}},{"type":"Feature","geometry":{"type":"LineString","coordinates":[[-96.96745158435134,32.920264634529346],[-96.96745158435134,32.920264634529346]]},"properties":{"dataset":"route","status":"ACTIVE","tags":["dallas-tx-metro-walmarts"],"address":"1635 Market Place Blvd.","city":"Irving","state":"TX","postalCode":"75063","name":"Walmart"}},{"type":"Feature","geometry":{"type":"LineString","coordinates":[[-96.82546315702143,32.68402522028972],[-96.82546315702143,32.68402522028972]]},"properties":{"dataset":"route","status":"ACTIVE","tags":["dallas-tx-metro-walmarts"],"address":"200 Short Blvd","city":"Dallas","state":"TX","postalCode":"75232","name":"Walmart Supercenter"}},{"type":"Feature","geometry":{"type":"LineString","coordinates":[[-96.89746644699069,32.76307446206835],[-96.89746644699069,32.76307446206835]]},"properties":{"dataset":"route","status":"ACTIVE","tags":["dallas-tx-metro-walmarts"],"address":"1521 N Cockrell Hill Rd","city":"Dallas","state":"TX","postalCode":"75211","name":"Walmart Supercenter"}},{"type":"Feature","geometry":{"type":"LineString","coordinates":[[-96.68958226181532,32.79429794991151],[-96.68958226181532,32.79429794991151]]},"properties":{"dataset":"route","status":"ACTIVE","tags":["dallas-tx-metro-walmarts"],"address":"7401 Samuell Blvd","city":"Dallas","state":"TX","postalCode":"75228","name":"Walmart Supercenter"}},{"type":"Feature","geometry":{"type":"LineString","coordinates":[[-96.75463064035314,32.86293076307544],[-96.75463064035314,32.86293076307544]]},"properties":{"dataset":"route","status":"ACTIVE","tags":["dallas-tx-metro-walmarts"],"address":"6185 Retail Rd","city":"Dallas","state":"TX","postalCode":"75231","name":"Walmart Supercenter"}},{"type":"Feature","geometry":{"type":"LineString","coordinates":[[-97.02103000760299,32.707051645239986],[-97.02103000760299,32.707051645239986]]},"properties":{"dataset":"route","status":"ACTIVE","tags":["dallas-tx-metro-walmarts"],"address":"Arkansas & 161","city":"Grand Prairie","state":"TX","postalCode":"75052","name":"Walmart"}},{"type":"Feature","geometry":{"type":"LineString","coordinates":[[-96.73896139509608,32.910601062165554],[-96.73896139509608,32.910601062165554]]},"properties":{"dataset":"route","status":"ACTIVE","tags":["dallas-tx-metro-walmarts"],"address":"9301 Forest Ln","city":"Dallas","state":"TX","postalCode":"75243","name":"Walmart Supercenter"}},{"type":"Feature","geometry":{"type":"LineString","coordinates":[[-96.81673765,32.95895865],[-96.81673765,32.95895865]]},"properties":{"dataset":"route","status":"ACTIVE","tags":["dallas-tx-metro-walmarts"],"address":"15220 Montfort Rd","city":"Dallas","state":"TX","postalCode":"75248","name":"Walmart Supercenter"}},{"type":"Feature","geometry":{"type":"LineString","coordinates":[[-96.77026558284983,32.963189455814366],[-96.77026558284983,32.963189455814366]]},"properties":{"dataset":"route","status":"ACTIVE","tags":["dallas-tx-metro-walmarts"],"address":"15757 Arapaho","city":"Dallas","state":"TX","name":"Walmart"}},{"type":"Feature","geometry":{"type":"LineString","coordinates":[[-96.8570926328939,32.86217048584277],[-96.8570926328939,32.86217048584277]]},"properties":{"dataset":"route","status":"ACTIVE","tags":["dallas-tx-metro-walmarts"],"address":"9410 Webb Chapel Rd","city":"Dallas","state":"TX","postalCode":"75220","name":"Walmart Supercenter"}},{"type":"Feature","geometry":{"type":"LineString","coordinates":[[-96.81973149680242,32.59255020787606],[-96.81973149680242,32.59255020787606]]},"properties":{"dataset":"route","status":"ACTIVE","tags":["dallas-tx-metro-walmarts"],"address":"150 N Interstate 35 E","city":"Lancaster","state":"TX","postalCode":"75146","name":"Walmart Supercenter"}},{"type":"Feature","geometry":{"type":"LineString","coordinates":[[-96.82831693008892,33.02470740759119],[-96.82831693008892,33.02470740759119]]},"properties":{"dataset":"route","status":"ACTIVE","tags":["dallas-tx-metro-walmarts"],"address":"1700 Dallas Pkwy","city":"Plano","state":"TX","postalCode":"75093","name":"Walmart Supercenter"}},{"type":"Feature","geometry":{"type":"LineString","coordinates":[[-96.6978412156676,33.05576551018384],[-96.6978412156676,33.05576551018384]]},"properties":{"dataset":"route","status":"ACTIVE","tags":["dallas-tx-metro-walmarts"],"address":"6001 N Central Expy","city":"Plano","state":"TX","postalCode":"75023","name":"Walmart Supercenter"}},{"type":"Feature","geometry":{"type":"LineString","coordinates":[[-97.00621221157064,32.83537547322326],[-97.00621221157064,32.83537547322326]]},"properties":{"dataset":"route","status":"ACTIVE","tags":["dallas-tx-metro-walmarts"],"address":"4100 W Airport Fwy","city":"Irving","state":"TX","postalCode":"75062","name":"Walmart Supercenter"}},{"type":"Feature","geometry":{"type":"LineString","coordinates":[[-96.87954387301255,32.59261199273748],[-96.87954387301255,32.59261199273748]]},"properties":{"dataset":"route","status":"ACTIVE","tags":["dallas-tx-metro-walmarts"],"address":"951 W Belt Line Rd","city":"DeSoto","state":"TX","postalCode":"75115","name":"Walmart Supercenter"}},{"type":"Feature","geometry":{"type":"LineString","coordinates":[[-96.59885926584631,32.789266004718755],[-96.59885926584631,32.789266004718755]]},"properties":{"dataset":"route","status":"ACTIVE","tags":["dallas-tx-metro-walmarts"],"address":"200 Us Highway 80 E","city":"Mesquite","state":"TX","postalCode":"75149","name":"Walmart Supercenter"}},{"type":"Feature","geometry":{"type":"LineString","coordinates":[[-96.77143381518187,33.00447022692925],[-96.77143381518187,33.00447022692925]]},"properties":{"dataset":"route","status":"ACTIVE","tags":["dallas-tx-metro-walmarts"],"address":"425 Coit Rd","city":"Plano","state":"TX","postalCode":"75075","name":"Walmart Supercenter"}},{"type":"Feature","geometry":{"type":"LineString","coordinates":[[-96.65230183580155,32.8628133318584],[-96.65230183580155,32.8628133318584]]},"properties":{"dataset":"route","status":"ACTIVE","tags":["dallas-tx-metro-walmarts"],"address":"1801 Marketplace Dr","city":"Garland","state":"TX","postalCode":"75041","name":"Walmart Supercenter"}},{"type":"Feature","geometry":{"type":"LineString","coordinates":[[-96.8518049,32.9199438],[-96.8518049,32.9199438]]},"properties":{"dataset":"route","status":"ACTIVE","tags":["dallas-tx-metro-walmarts"],"address":"4122 Lbj Freeway","city":"Dallas","state":"TX","postalCode":"75244","name":"Walmart Supercenter"}},{"type":"Feature","geometry":{"type":"LineString","coordinates":[[-96.59781544268044,32.842163105846595],[-96.59781544268044,32.842163105846595]]},"properties":{"dataset":"route","status":"ACTIVE","tags":["dallas-tx-metro-walmarts"],"address":"555 W Interstate 30","city":"Garland","state":"TX","postalCode":"75043","name":"Walmart Supercenter"}},{"type":"Feature","geometry":{"type":"LineString","coordinates":[[-96.64293792404276,32.96235813696417],[-96.64293792404276,32.96235813696417]]},"properties":{"dataset":"route","status":"ACTIVE","tags":["dallas-tx-metro-walmarts"],"address":"5302 N Garland Ave","city":"Garland","state":"TX","postalCode":"75040","name":"Walmart Supercenter"}},{"type":"Feature","geometry":{"type":"LineString","coordinates":[[-97.09511502769216,32.75078163022451],[-97.09511502769216,32.75078163022451]]},"properties":{"dataset":"route","status":"ACTIVE","tags":["dallas-tx-metro-walmarts"],"address":"915 E Randol Mill Rd","city":"Arlington","state":"TX","postalCode":"76011","name":"Walmart Supercenter"}},{"type":"Feature","geometry":{"type":"LineString","coordinates":[[-96.99745368239623,33.009590839926865],[-96.99745368239623,33.009590839926865]]},"properties":{"dataset":"route","status":"ACTIVE","tags":["dallas-tx-metro-walmarts"],"address":"190 E Round Grove Rd","city":"Lewisville","state":"TX","postalCode":"75067","name":"Walmart Supercenter"}},{"type":"Feature","geometry":{"type":"LineString","coordinates":[[-96.90558247416207,32.985437359081686],[-96.90558247416207,32.985437359081686]]},"properties":{"dataset":"route","status":"ACTIVE","tags":["dallas-tx-metro-walmarts"],"address":"1213 E Trinity Mills Rd","city":"Carrollton","state":"TX","postalCode":"75006","name":"Walmart Supercenter"}},{"type":"Feature","geometry":{"type":"LineString","coordinates":[[-97.10604072,32.86422342],[-97.10604072,32.86422342]]},"properties":{"dataset":"route","status":"ACTIVE","tags":["dallas-tx-metro-walmarts"],"address":"4101 Highway 121","city":"Bedford","state":"TX","postalCode":"76021","name":"Walmart Supercenter"}},{"type":"Feature","geometry":{"type":"LineString","coordinates":[[-97.03645348548889,32.673681547004364],[-97.03645348548889,32.673681547004364]]},"properties":{"dataset":"route","status":"ACTIVE","tags":["dallas-tx-metro-walmarts"],"address":"2225 W Interstate 20","city":"Grand Prairie","state":"TX","postalCode":"75052","name":"Walmart Supercenter"}},{"type":"Feature","geometry":{"type":"LineString","coordinates":[[-96.8727159,32.64919825],[-96.8727159,32.64919825]]},"properties":{"dataset":"route","status":"ACTIVE","tags":["dallas-tx-metro-walmarts"],"address":"3155 W Wheatland Rd","city":"Dallas","state":"TX","postalCode":"75237","name":"Walmart"}},{"type":"Feature","geometry":{"type":"LineString","coordinates":[[-96.94389172912557,32.64939610529123],[-96.94389172912557,32.64939610529123]]},"properties":{"dataset":"route","status":"ACTIVE","tags":["dallas-tx-metro-walmarts"],"address":"7075 W Wheatland Rd","city":"Dallas","state":"TX","postalCode":"75249","name":"Walmart Supercenter"}},{"type":"Feature","geometry":{"type":"LineString","coordinates":[[-96.9467124751403,32.59782012436273],[-96.9467124751403,32.59782012436273]]},"properties":{"dataset":"route","status":"ACTIVE","tags":["dallas-tx-metro-walmarts"],"address":"621 Uptown Blvd","city":"Cedar Hill","state":"TX","postalCode":"75104","name":"Walmart Supercenter"}}]}