{"type":"FeatureCollection","features":[{"type":"Feature","geometry":{"type":"LineString","coordinates":[[-96.7914712429046,32.803724741007805],[-96.7914712429046,32.803724741007805]]},"properties":{"dataset":"route","status":"ACTIVE","tags":["dallas-tx-metro-targets"],"address":"2417 N Haskell Ave","city":"Dallas","state":"TX","postalCode":"75204","name":"Target"}},{"type":"Feature","geometry":{"type":"LineString","coordinates":[[-96.75264358520508,32.85707678731128],[-96.75264358520508,32.85707678731128]]},"properties":{"dataset":"route","status":"ACTIVE","tags":["dallas-tx-metro-targets"],"address":"212 Medallion Shopping Ctr.","city":"Dallas","state":"TX","postalCode":"75214","name":"Target"}},{"type":"Feature","geometry":{"type":"LineString","coordinates":[[-96.7456566,32.8654785],[-96.7456566,32.8654785]]},"properties":{"dataset":"route","status":"ACTIVE","tags":["dallas-tx-metro-targets"],"address":"6419 Skillman St","city":"Dallas","state":"TX","postalCode":"75231","name":"Target"}},{"type":"Feature","geometry":{"type":"LineString","coordinates":[[-96.85386876592146,32.950908704806345],[-96.85386876592146,32.950908704806345]]},"properties":{"dataset":"route","status":"ACTIVE","tags":["dallas-tx-metro-targets"],"address":"3730 Belt Line Rd","city":"Addison","state":"TX","postalCode":"75001","name":"Target"}},{"type":"Feature","geometry":{"type":"LineString","coordinates":[[-96.9625836611885,32.9134651273591],[-96.9625836611885,32.9134651273591]]},"properties":{"dataset":"route","status":"ACTIVE","tags":["dallas-tx-metro-targets"],"address":"7845 N MacArthur Blvd","city":"Irving","state":"TX","postalCode":"75063","name":"Target"}},{"type":"Feature","geometry":{"type":"LineString","coordinates":[[-96.85431395188571,32.862575112632975],[-96.85431395188571,32.862575112632975]]},"properties":{"dataset":"route","status":"ACTIVE","tags":["dallas-tx-metro-targets"],"address":"9440 Marsh Ln","city":"Dallas","state":"TX","postalCode":"75220","name":"Target"}},{"type":"Feature","geometry":{"type":"LineString","coordinates":[[-96.82742539841693,33.030470200293465],[-96.82742539841693,33.030470200293465]]},"properties":{"dataset":"route","status":"ACTIVE","tags":["dallas-tx-metro-targets"],"address":"2200 Dallas Pkwy","city":"Plano","state":"TX","postalCode":"75093","name":"Target"}},{"type":"Feature","geometry":{"type":"LineString","coordinates":[[-96.81316316597072,32.927884250104256],[-96.81316316597072,32.927884250104256]]},"properties":{"dataset":"route","status":"ACTIVE","tags":["dallas-tx-metro-targets"],"address":"13131 Montfort Dr","city":"Dallas","state":"TX","postalCode":"75240","name":"Target"}},{"type":"Feature","geometry":{"type":"LineString","coordinates":[[-97.10443989431145,32.880305031464786],[-97.10443989431145,32.880305031464786]]},"properties":{"dataset":"route","status":"ACTIVE","tags":["dallas-tx-metro-targets"],"address":"1401 W Glade Rd","city":"Euless","state":"TX","postalCode":"76039","name":"Target"}},{"type":"Feature","geometry":{"type":"LineString","coordinates":[[-96.99093681638834,32.839330369566284],[-96.99093681638834,32.839330369566284]]},"properties":{"dataset":"route","status":"ACTIVE","tags":["dallas-tx-metro-targets"],"address":"3333 W Airport Fwy","city":"Irving","state":"TX","postalCode":"75062","name":"Target"}},{"type":"Feature","geometry":{"type":"LineString","coordinates":[[-96.88494982537502,33.064195153620325],[-96.88494982537502,33.064195153620325]]},"properties":{"dataset":"route","status":"ACTIVE","tags":["dallas-tx-metro-targets"],"address":"4760 State Highway 121","city":"Lewisville","state":"TX","postalCode":"75056","name":"Target"}},{"type":"Feature","geometry":{"type":"LineString","coordinates":[[-96.76970957059834,32.98243226856123],[-96.76970957059834,32.98243226856123]]},"properties":{"dataset":"route","status":"ACTIVE","tags":["dallas-tx-metro-targets"],"address":"16731 Coit Rd","city":"Dallas","state":"TX","postalCode":"75248","name":"Target"}},{"type":"Feature","geometry":{"type":"LineString","coordinates":[[-96.81202690051732,33.10437225045824],[-96.81202690051732,33.10437225045824]]},"properties":{"dataset":"route","status":"ACTIVE","tags":["dallas-tx-metro-targets"],"address":"3201 Preston Rd","city":"Frisco","state":"TX","postalCode":"75034","name":"Target"}},{"type":"Feature","geometry":{"type":"LineString","coordinates":[[-96.64657088636797,32.965322082933326],[-96.64657088636797,32.965322082933326]]},"properties":{"dataset":"route","status":"ACTIVE","tags":["dallas-tx-metro-targets"],"address":"5301 N Garland Ave","city":"Garland","state":"TX","postalCode":"75040","name":"Target"}},{"type":"Feature","geometry":{"type":"LineString","coordinates":[[-97.0895829971384,32.93063083272722],[-97.0895829971384,32.93063083272722]]},"properties":{"dataset":"route","status":"ACTIVE","tags":["dallas-tx-metro-targets"],"address":"1101 Ira E Woods Ave","city":"Grapevine","state":"TX","postalCode":"76051","name":"Target"}},{"type":"Feature","geometry":{"type":"LineString","coordinates":[[-96.62114991085873,32.813485301163105],[-96.62114991085873,32.813485301163105]]},"properties":{"dataset":"route","status":"ACTIVE","tags":["dallas-tx-metro-targets"],"address":"1629 N Town East Blvd","city":"Mesquite","state":"TX","postalCode":"75150","name":"Target"}},{"type":"Feature","geometry":{"type":"LineString","coordinates":[[-96.97069264979146,33.01232728357005],[-96.97069264979146,33.01232728357005]]},"properties":{"dataset":"route","status":"ACTIVE","tags":["dallas-tx-metro-targets"],"address":"725 Hebron Pkwy","city":"Lewisville","state":"TX","postalCode":"75057","name":"Target"}},{"type":"Feature","geometry":{"type":"LineString","coordinates":[[-96.86295036785891,32.649933424873666],[-96.86295036785891,32.649933424873666]]},"properties":{"dataset":"route","status":"ACTIVE","tags":["dallas-tx-metro-targets"],"address":"39739 Lyndon B Johnson Fwy","city":"Dallas","state":"TX","postalCode":"75237","name":"Target"}},{"type":"Feature","geometry":{"type":"LineString","coordinates":[[-96.9367145772834,32.603303196712254],[-96.9367145772834,32.603303196712254]]},"properties":{"dataset":"route","status":"ACTIVE","tags":["dallas-tx-metro-targets"],"address":"739 N Highway 67","city":"Cedar Hill","state":"TX","postalCode":"75104","name":"Target"}},{"type":"Feature","geometry":{"type":"LineString","coordinates":[[-96.59364409804454,33.00925323371537],[-96.59364409804454,33.00925323371537]]},"properties":{"dataset":"route","status":"ACTIVE","tags":["dallas-tx-metro-targets"],"address":"3440 W FM 544","city":"Wylie","state":"TX","postalCode":"75098","name":"Target"}},{"type":"Feature","geometry":{"type":"LineString","coordinates":[[-97.06055522642671,32.64300245208594],[-97.06055522642671,32.64300245208594]]},"properties":{"dataset":"route","status":"ACTIVE","tags":["dallas-tx-metro-targets"],"address":"5270 S State Highway 360","city":"Grand Prairie","state":"TX","postalCode":"75052","name":"Target"}},{"type":"Feature","geometry":{"type":"LineString","coordinates":[[-97.18374575544779,32.836369301450915],[-97.18374575544779,32.836369301450915]]},"properties":{"dataset":"route","status":"ACTIVE","tags":["dallas-tx-metro-targets"],"address":"1400 Precinct Line Rd","city":"Hurst","state":"TX","postalCode":"76053","name":"Target"}},{"type":"Feature","geometry":{"type":"LineString","coordinates":[[-97.13603832801509,32.68409889335653],[-97.13603832801509,32.68409889335653]]},"properties":{"dataset":"route","status":"ACTIVE","tags":["dallas-tx-metro-targets"],"address":"1600 W Arbrook Blvd","city":"Arlington","state":"TX","postalCode":"76015","name":"Target"}},{"type":"Feature","geometry":{"type":"LineString","coordinates":[[-96.70815945300818,33.037358492036184],[-96.70815945300818,33.037358492036184]]},"properties":{"dataset":"route","status":"ACTIVE","tags":["dallas-tx-metro-targets"],"address":"120 W Parker Rd","city":"Plano","state":"TX","postalCode":"75075","name":"Target"}},{"type":"Feature","geometry":{"type":"LineString","coordinates":[[-97.00965017930254,32.67801135484272],[-97.00965017930254,32.67801135484272]]},"properties":{"dataset":"route","status":"ACTIVE","tags":["dallas-tx-metro-targets"],"address":"554 W Interstate 20","city":"Grand Prairie","state":"TX","postalCode":"75052","name":"Target"}},{"type":"Feature","geometry":{"type":"LineString","coordinates":[[-96.46787177758476,32.89409810129071],[-96.46787177758476,32.89409810129071]]},"properties":{"dataset":"route","status":"ACTIVE","tags":["dallas-tx-metro-targets"],"address":"850 Steger Towne Rd","city":"Rockwall","state":"TX","postalCode":"75032","name":"Target"}},{"type":"Feature","geometry":{"type":"LineString","coordinates":[[-96.55802884390384,32.9089796854774],[-96.55802884390384,32.9089796854774]]},"properties":{"dataset":"route","status":"ACTIVE","tags":["dallas-tx-metro-targets"],"address":"4701 Lakeview Pkwy","city":"Rowlett","state":"TX","postalCode":"75088","name":"Target"}},{"type":"Feature","geometry":{"type":"LineString","coordinates":[[-96.73067770255739,33.12914065668947],[-96.73067770255739,33.12914065668947]]},"properties":{"dataset":"route","status":"ACTIVE","tags":["dallas-tx-metro-targets"],"address":"8900 State Highway 121","city":"McKinney","state":"TX","postalCode":"75070","name":"Target"}},{"type":"Feature","geometry":{"type":"LineString","coordinates":[[-96.66174541672487,33.12390783366084],[-96.66174541672487,33.12390783366084]]},"properties":{"dataset":"route","status":"ACTIVE","tags":["dallas-tx-metro-targets"],"address":"150 E Stacy Rd","city":"Allen","state":"TX","postalCode":"75002","name":"Target"}},{"type":"Feature","geometry":{"type":"LineString","coordinates":[[-97.18836232307834,32.90821745718941],[-97.18836232307834,32.90821745718941]]},"properties":{"dataset":"route","status":"ACTIVE","tags":["dallas-tx-metro-targets"],"address":"8532 Davis Blvd","city":"North Richland Hills","state":"TX","postalCode":"76182","name":"Target"}}]}