{"type":"FeatureCollection","features":[{"type":"Feature","geometry":{"type":"LineString","coordinates":[[-83.2066,42.28524],[-83.2066,42.28524]]},"properties":{"dataset":"route","status":"ACTIVE","tags":["detroit-mi-metro-targets}"],"address":"3100 Fairlane Dr","city":"Allen Park","state":"MI","postalCode":"48101","name":"Target"}},{"type":"Feature","geometry":{"type":"LineString","coordinates":[[-83.08329770482524,42.50363229761092],[-83.08329770482524,42.50363229761092]]},"properties":{"dataset":"route","status":"ACTIVE","tags":["detroit-mi-metro-targets}"],"address":"28800 Dequindre Rd","city":"Warren","state":"MI","postalCode":"48092","name":"Target"}},{"type":"Feature","geometry":{"type":"LineString","coordinates":[[-83.10836418602717,42.52849328983444],[-83.10836418602717,42.52849328983444]]},"properties":{"dataset":"route","status":"ACTIVE","tags":["detroit-mi-metro-targets}"],"address":"32001 John R Rd","city":"Madison Heights","state":"MI","postalCode":"48071","name":"Target"}},{"type":"Feature","geometry":{"type":"LineString","coordinates":[[-83.18958353851205,42.545166602131935],[-83.18958353851205,42.545166602131935]]},"properties":{"dataset":"route","status":"ACTIVE","tags":["detroit-mi-metro-targets}"],"address":"1301 Coolidge Hwy","city":"Troy","state":"MI","postalCode":"48084","name":"Target"}},{"type":"Feature","geometry":{"type":"LineString","coordinates":[[-83.2245858988089,42.137746148892155],[-83.2245858988089,42.137746148892155]]},"properties":{"dataset":"route","status":"ACTIVE","tags":["detroit-mi-metro-targets}"],"address":"23555 Allen Rd","city":"Woodhaven","state":"MI","postalCode":"48183","name":"Target"}},{"type":"Feature","geometry":{"type":"LineString","coordinates":[[-83.25512811475065,42.20327360297499],[-83.25512811475065,42.20327360297499]]},"properties":{"dataset":"route","status":"ACTIVE","tags":["detroit-mi-metro-targets}"],"address":"14099 Pardee Rd","city":"Taylor","state":"MI","postalCode":"48180","name":"Target"}},{"type":"Feature","geometry":{"type":"LineString","coordinates":[[-83.33480079613183,42.3667339948492],[-83.33480079613183,42.3667339948492]]},"properties":{"dataset":"route","status":"ACTIVE","tags":["detroit-mi-metro-targets}"],"address":"29451 Plymouth Rd","city":"Livonia","state":"MI","postalCode":"48150","name":"Target"}},{"type":"Feature","geometry":{"type":"LineString","coordinates":[[-83.30267214640739,42.32821396167492],[-83.30267214640739,42.32821396167492]]},"properties":{"dataset":"route","status":"ACTIVE","tags":["detroit-mi-metro-targets}"],"address":"26650 Ford Rd","city":"Dearborn Heights","state":"MI","postalCode":"48127","name":"Target"}},{"type":"Feature","geometry":{"type":"LineString","coordinates":[[-83.3435333573504,42.452082758533216],[-83.3435333573504,42.452082758533216]]},"properties":{"dataset":"route","status":"ACTIVE","tags":["detroit-mi-metro-targets}"],"address":"30020 Grand River Ave","city":"Farmington Hills","state":"MI","postalCode":"48336","name":"Target"}},{"type":"Feature","geometry":{"type":"LineString","coordinates":[[-82.99679494816253,42.62848949448371],[-82.99679494816253,42.62848949448371]]},"properties":{"dataset":"route","status":"ACTIVE","tags":["detroit-mi-metro-targets}"],"address":"13221 Hall Rd","city":"Utica","state":"MI","postalCode":"48315","name":"Target"}},{"type":"Feature","geometry":{"type":"LineString","coordinates":[[-83.43160228118357,42.43441532748313],[-83.43160228118357,42.43441532748313]]},"properties":{"dataset":"route","status":"ACTIVE","tags":["detroit-mi-metro-targets}"],"address":"20100 Haggerty Rd","city":"Livonia","state":"MI","postalCode":"48152","name":"Target"}},{"type":"Feature","geometry":{"type":"LineString","coordinates":[[-83.08535508843245,42.561897178816295],[-83.08535508843245,42.561897178816295]]},"properties":{"dataset":"route","status":"ACTIVE","tags":["detroit-mi-metro-targets}"],"address":"2310 Metropolitan Pkwy","city":"Sterling Heights","state":"MI","postalCode":"48310","name":"Target"}},{"type":"Feature","geometry":{"type":"LineString","coordinates":[[-83.12925529503833,42.638055476236325],[-83.12925529503833,42.638055476236325]]},"properties":{"dataset":"route","status":"ACTIVE","tags":["detroit-mi-metro-targets}"],"address":"2887 S Rochester Rd","city":"Rochester Hills","state":"MI","postalCode":"48307","name":"Target"}},{"type":"Feature","geometry":{"type":"LineString","coordinates":[[-83.39042450513936,42.33725682961372],[-83.39042450513936,42.33725682961372]]},"properties":{"dataset":"route","status":"ACTIVE","tags":["detroit-mi-metro-targets}"],"address":"35401 Warren Rd","city":"Westland","state":"MI","postalCode":"48185","name":"Target"}},{"type":"Feature","geometry":{"type":"LineString","coordinates":[[-82.9586592,42.2649918],[-82.9586592,42.2649918]]},"properties":{"dataset":"route","status":"ACTIVE","tags":["detroit-mi-metro-targets}"],"address":"3245 CR-42","city":"Windsor","state":"ON","postalCode":"N9A 6J3","name":"Target Building Materials Ltd"}},{"type":"Feature","geometry":{"type":"LineString","coordinates":[[-82.91255740894451,42.630732416764765],[-82.91255740894451,42.630732416764765]]},"properties":{"dataset":"route","status":"ACTIVE","tags":["detroit-mi-metro-targets}"],"address":"20877 Hall Rd","city":"Macomb","state":"MI","postalCode":"48044","name":"Target"}},{"type":"Feature","geometry":{"type":"LineString","coordinates":[[-83.29337091454907,42.603597247972694],[-83.29337091454907,42.603597247972694]]},"properties":{"dataset":"route","status":"ACTIVE","tags":["detroit-mi-metro-targets}"],"address":"2400 S Telegraph Rd","city":"Bloomfield Hills","state":"MI","postalCode":"48302","name":"Target"}},{"type":"Feature","geometry":{"type":"LineString","coordinates":[[-83.47145051599142,42.323468898759494],[-83.47145051599142,42.323468898759494]]},"properties":{"dataset":"route","status":"ACTIVE","tags":["detroit-mi-metro-targets}"],"address":"43670 Ford Rd","city":"Canton","state":"MI","postalCode":"48187","name":"Target"}},{"type":"Feature","geometry":{"type":"LineString","coordinates":[[-83.50298841168569,42.269544203489495],[-83.50298841168569,42.269544203489495]]},"properties":{"dataset":"route","status":"ACTIVE","tags":["detroit-mi-metro-targets}"],"address":"47330 Michigan Ave","city":"Canton","state":"MI","postalCode":"48188","name":"Target"}},{"type":"Feature","geometry":{"type":"LineString","coordinates":[[-83.19948698475586,42.32783042723582],[-83.19948698475586,42.32783042723582]]},"properties":{"dataset":"route","status":"ACTIVE","tags":["detroit-mi-metro-targets}"],"address":"15901 Ford Rd","city":"Dearborn","state":"MI","postalCode":"48126","name":"Target"}},{"type":"Feature","geometry":{"type":"LineString","coordinates":[[-83.00595760345459,42.27546707569731],[-83.00595760345459,42.27546707569731]]},"properties":{"dataset":"route","status":"ACTIVE","tags":["detroit-mi-metro-targets}"],"address":"3100 Howard Ave","city":"Windsor","state":"ON","postalCode":"N8X 3Y8","name":"Target"}},{"type":"Feature","geometry":{"type":"LineString","coordinates":[[-83.44140442444161,42.53395952053095],[-83.44140442444161,42.53395952053095]]},"properties":{"dataset":"route","status":"ACTIVE","tags":["detroit-mi-metro-targets}"],"address":"495 Haggerty Hwy","city":"Walled Lake","state":"MI","postalCode":"48390","name":"Target"}},{"type":"Feature","geometry":{"type":"LineString","coordinates":[[-83.03326923508749,42.71130203109908],[-83.03326923508749,42.71130203109908]]},"properties":{"dataset":"route","status":"ACTIVE","tags":["detroit-mi-metro-targets}"],"address":"8200 26 Mile Rd","city":"Shelby Township","state":"MI","postalCode":"48316","name":"Target"}},{"type":"Feature","geometry":{"type":"LineString","coordinates":[[-82.82906384254343,42.67703876472569],[-82.82906384254343,42.67703876472569]]},"properties":{"dataset":"route","status":"ACTIVE","tags":["detroit-mi-metro-targets}"],"address":"51400 Gratiot Ave","city":"Chesterfield","state":"MI","postalCode":"48051","name":"Target"}},{"type":"Feature","geometry":{"type":"LineString","coordinates":[[-83.18158864974976,42.51371087768777],[-83.18158864974976,42.51371087768777]]},"properties":{"dataset":"route","status":"ACTIVE","tags":["detroit-mi-metro-targets}"],"address":"30482 Woodward Ave","city":"Royal Oak","state":"MI","postalCode":"48073","name":"Target Sports Gun Shop and Shooting Range"}},{"type":"Feature","geometry":{"type":"LineString","coordinates":[[-83.15483131280972,42.27392017883448],[-83.15483131280972,42.27392017883448]]},"properties":{"dataset":"route","status":"ACTIVE","tags":["detroit-mi-metro-targets}"],"city":"Taylor","state":"MI","postalCode":"48180","name":"Target"}},{"type":"Feature","geometry":{"type":"LineString","coordinates":[[-83.53369685334961,42.488154752867665],[-83.53369685334961,42.488154752867665]]},"properties":{"dataset":"route","status":"ACTIVE","tags":["detroit-mi-metro-targets}"],"address":"27100 Wixom Rd","city":"Novi","state":"MI","postalCode":"48374","name":"Target"}},{"type":"Feature","geometry":{"type":"LineString","coordinates":[[-83.22510686791783,42.51285786271385],[-83.22510686791783,42.51285786271385]]},"properties":{"dataset":"route","status":"ACTIVE","tags":["detroit-mi-metro-targets}"],"address":"30333 Southfield Rd","city":"Southfield","state":"MI","postalCode":"48076","name":"Target"}},{"type":"Feature","geometry":{"type":"LineString","coordinates":[[-83.178993,42.3889177],[-83.178993,42.3889177]]},"properties":{"dataset":"route","status":"ACTIVE","tags":["detroit-mi-metro-targets}"],"name":"Target"}},{"type":"Feature","geometry":{"type":"LineString","coordinates":[[-82.90298909778285,42.54549213791514],[-82.90298909778285,42.54549213791514]]},"properties":{"dataset":"route","status":"ACTIVE","tags":["detroit-mi-metro-targets}"],"address":"33860 S Gratiot Ave","city":"Clinton Township","state":"MI","postalCode":"48035","name":"Target"}}]}