{"type":"FeatureCollection","features":[{"type":"Feature","geometry":{"type":"LineString","coordinates":[[-83.01116675791185,42.27106451437372],[-83.01116675791185,42.27106451437372]]},"properties":{"dataset":"route","status":"ACTIVE","tags":["detroit-mi-metro-walmarts"],"address":"3120 Dougall Ave","city":"Windsor","state":"ON","postalCode":"N9E 1S7","name":"Walmart"}},{"type":"Feature","geometry":{"type":"LineString","coordinates":[[-82.9434084892273,42.31460745603886],[-82.9434084892273,42.31460745603886]]},"properties":{"dataset":"route","status":"ACTIVE","tags":["detroit-mi-metro-walmarts"],"address":"7100 Tecumseh Road E","city":"Windsor","state":"ON","postalCode":"N8T 1E6","name":"Walmart"}},{"type":"Feature","geometry":{"type":"LineString","coordinates":[[-83.20933114,42.33074184],[-83.20933114,42.33074184]]},"properties":{"dataset":"route","status":"ACTIVE","tags":["detroit-mi-metro-walmarts"],"address":"5851 Mercury Dr","city":"Dearborn","state":"MI","postalCode":"48126","name":"Walmart Supercenter"}},{"type":"Feature","geometry":{"type":"LineString","coordinates":[[-83.33994163666095,42.43047700603418],[-83.33994163666095,42.43047700603418]]},"properties":{"dataset":"route","status":"ACTIVE","tags":["detroit-mi-metro-walmarts"],"address":"29574 7 Mile Rd","city":"Livonia","state":"MI","postalCode":"48152","name":"Walmart"}},{"type":"Feature","geometry":{"type":"LineString","coordinates":[[-83.21046222598457,42.201673786436835],[-83.21046222598457,42.201673786436835]]},"properties":{"dataset":"route","status":"ACTIVE","tags":["detroit-mi-metro-walmarts"],"address":"14900 Dix Toledo Rd","city":"Southgate","state":"MI","postalCode":"48195","name":"Walmart Supercenter"}},{"type":"Feature","geometry":{"type":"LineString","coordinates":[[-83.02667022003315,42.508222773805414],[-83.02667022003315,42.508222773805414]]},"properties":{"dataset":"route","status":"ACTIVE","tags":["detroit-mi-metro-walmarts"],"address":"29176 Van Dyke Avenue","city":"Warren","state":"MI","postalCode":"48093","name":"Walmart Garden Center"}},{"type":"Feature","geometry":{"type":"LineString","coordinates":[[-83.03190255,42.53832481],[-83.03190255,42.53832481]]},"properties":{"dataset":"route","status":"ACTIVE","tags":["detroit-mi-metro-walmarts"],"address":"33201 Van Dyke Ave","city":"Sterling Heights","state":"MI","postalCode":"48312","name":"Walmart Supercenter"}},{"type":"Feature","geometry":{"type":"LineString","coordinates":[[-83.26610201314267,42.253566220816396],[-83.26610201314267,42.253566220816396]]},"properties":{"dataset":"route","status":"ACTIVE","tags":["detroit-mi-metro-walmarts"],"address":"7555 Telegraph Rd","city":"Taylor","state":"MI","postalCode":"48180","name":"Walmart Supercenter"}},{"type":"Feature","geometry":{"type":"LineString","coordinates":[[-83.22752953,42.13588154],[-83.22752953,42.13588154]]},"properties":{"dataset":"route","status":"ACTIVE","tags":["detroit-mi-metro-walmarts"],"address":"23800 Allen Rd","city":"Woodhaven","state":"MI","postalCode":"48183","name":"Walmart Supercenter"}},{"type":"Feature","geometry":{"type":"LineString","coordinates":[[-83.17298380461577,42.544522951615065],[-83.17298380461577,42.544522951615065]]},"properties":{"dataset":"route","status":"ACTIVE","tags":["detroit-mi-metro-walmarts"],"address":"2001 W Maple Rd","city":"Troy","state":"MI","postalCode":"48084","name":"Walmart Supercenter"}},{"type":"Feature","geometry":{"type":"LineString","coordinates":[[-82.92601910751999,42.508383428551035],[-82.92601910751999,42.508383428551035]]},"properties":{"dataset":"route","status":"ACTIVE","tags":["detroit-mi-metro-walmarts"],"address":"28804 Gratiot Ave","city":"Roseville","state":"MI","postalCode":"48066","name":"Walmart Supercenter"}},{"type":"Feature","geometry":{"type":"LineString","coordinates":[[-83.07051945025742,42.31717841329541],[-83.07051945025742,42.31717841329541]]},"properties":{"dataset":"route","status":"ACTIVE","tags":["detroit-mi-metro-walmarts"],"address":"Van dyke","city":"Sterling hgts","state":"MI","name":"Walmart supercenter"}},{"type":"Feature","geometry":{"type":"LineString","coordinates":[[-83.33643596068929,42.36682052436595],[-83.33643596068929,42.36682052436595]]},"properties":{"dataset":"route","status":"ACTIVE","tags":["detroit-mi-metro-walmarts"],"address":"29555 Plymouth Rd","city":"Livonia","state":"MI","postalCode":"48150","name":"Walmart Supercenter"}},{"type":"Feature","geometry":{"type":"LineString","coordinates":[[-82.93770222886427,42.62635249009149],[-82.93770222886427,42.62635249009149]]},"properties":{"dataset":"route","status":"ACTIVE","tags":["detroit-mi-metro-walmarts"],"address":"18400 Hall Rd","city":"Clinton Township","state":"MI","postalCode":"48038","name":"Walmart Supercenter"}},{"type":"Feature","geometry":{"type":"LineString","coordinates":[[-83.05492809651805,42.62180504352345],[-83.05492809651805,42.62180504352345]]},"properties":{"dataset":"route","status":"ACTIVE","tags":["detroit-mi-metro-walmarts"],"address":"44575 Mound Rd","city":"Sterling Heights","state":"MI","postalCode":"48314","name":"Walmart"}},{"type":"Feature","geometry":{"type":"LineString","coordinates":[[-83.47094683699882,42.482048729039654],[-83.47094683699882,42.482048729039654]]},"properties":{"dataset":"route","status":"ACTIVE","tags":["detroit-mi-metro-walmarts"],"address":"26090 Ingersol Dr","city":"Novi","state":"MI","postalCode":"48375","name":"Walmart Supercenter"}},{"type":"Feature","geometry":{"type":"LineString","coordinates":[[-82.85262186735427,42.63460142766286],[-82.85262186735427,42.63460142766286]]},"properties":{"dataset":"route","status":"ACTIVE","tags":["detroit-mi-metro-walmarts"],"address":"45400 Marketplace Blvd","city":"Chesterfield","state":"MI","postalCode":"48051","name":"Walmart Supercenter"}},{"type":"Feature","geometry":{"type":"LineString","coordinates":[[-83.10950401557658,42.09672244920622],[-83.10950401557658,42.09672244920622]]},"properties":{"dataset":"route","status":"ACTIVE","tags":["detroit-mi-metro-walmarts"],"address":"400 Sandwich St. S","city":"Amherstburg","state":"ON","postalCode":"N9V 3L4","name":"Walmart Supercentre"}},{"type":"Feature","geometry":{"type":"LineString","coordinates":[[-83.43051045741782,42.32508172261207],[-83.43051045741782,42.32508172261207]]},"properties":{"dataset":"route","status":"ACTIVE","tags":["detroit-mi-metro-walmarts"],"address":"39500 Ford Rd","city":"Canton","state":"MI","postalCode":"48187","name":"Walmart Supercenter"}},{"type":"Feature","geometry":{"type":"LineString","coordinates":[[-83.19833156799518,42.64319279639434],[-83.19833156799518,42.64319279639434]]},"properties":{"dataset":"route","status":"ACTIVE","tags":["detroit-mi-metro-walmarts"],"address":"2500 S Adams Rd","city":"Rochester Hills","state":"MI","postalCode":"48309","name":"Walmart Supercenter"}},{"type":"Feature","geometry":{"type":"LineString","coordinates":[[-83.18089645628017,42.43211689512657],[-83.18089645628017,42.43211689512657]]},"properties":{"dataset":"route","status":"ACTIVE","tags":["detroit-mi-metro-walmarts"],"address":"92555 Plymouth","city":"Livonia","state":"MI","name":"Walmart"}},{"type":"Feature","geometry":{"type":"LineString","coordinates":[[-83.01041735046792,42.67289143950137],[-83.01041735046792,42.67289143950137]]},"properties":{"dataset":"route","status":"ACTIVE","tags":["detroit-mi-metro-walmarts"],"address":"51450 Shelby Pkwy","city":"Shelby Township","state":"MI","postalCode":"48315","name":"Walmart Supercenter"}},{"type":"Feature","geometry":{"type":"LineString","coordinates":[[-83.48738650988712,42.22543682031495],[-83.48738650988712,42.22543682031495]]},"properties":{"dataset":"route","status":"ACTIVE","tags":["detroit-mi-metro-walmarts"],"address":"10562 Belleville Rd","city":"Belleville","state":"MI","postalCode":"48111","name":"Walmart Supercenter"}},{"type":"Feature","geometry":{"type":"LineString","coordinates":[[-83.48900903821317,42.269014041757416],[-83.48900903821317,42.269014041757416]]},"properties":{"dataset":"route","status":"ACTIVE","tags":["detroit-mi-metro-walmarts"],"address":"45555 Michigan Ave","city":"Canton","state":"MI","postalCode":"48188","name":"Walmart Supercenter"}},{"type":"Feature","geometry":{"type":"LineString","coordinates":[[-83.44225351645943,42.559169409005236],[-83.44225351645943,42.559169409005236]]},"properties":{"dataset":"route","status":"ACTIVE","tags":["detroit-mi-metro-walmarts"],"address":"3301 Pontiac Trail Road","city":"Commerce Township","state":"MI","postalCode":"48390","name":"Walmart Supercenter"}},{"type":"Feature","geometry":{"type":"LineString","coordinates":[[-82.63902534660834,42.08893436788374],[-82.63902534660834,42.08893436788374]]},"properties":{"dataset":"route","status":"ACTIVE","tags":["detroit-mi-metro-walmarts"],"address":"304 Erie Street South","city":"Leamington","state":"ON","postalCode":"N8H 3C5","name":"Walmart Supercenter, Leamington"}},{"type":"Feature","geometry":{"type":"LineString","coordinates":[[-83.39700222,41.95224552],[-83.39700222,41.95224552]]},"properties":{"dataset":"route","status":"ACTIVE","tags":["detroit-mi-metro-walmarts"],"address":"2150 N Telegraph Rd","city":"Monroe","state":"MI","postalCode":"48162","name":"Walmart Supercenter"}}]}