{"type":"FeatureCollection","features":[{"type":"Feature","geometry":{"type":"LineString","coordinates":[[-95.38498275102646,29.77467685280716],[-95.38498275102646,29.77467685280716]]},"properties":{"dataset":"route","status":"ACTIVE","tags":["houston-tx-metro-targets"],"address":"2580 Shearn St","city":"Houston","state":"TX","postalCode":"77007","name":"Target"}},{"type":"Feature","geometry":{"type":"LineString","coordinates":[[-95.41843855877896,29.692844991400705],[-95.41843855877896,29.692844991400705]]},"properties":{"dataset":"route","status":"ACTIVE","tags":["houston-tx-metro-targets"],"address":"8500 Main St","city":"Houston","state":"TX","postalCode":"77025","name":"Target"}},{"type":"Feature","geometry":{"type":"LineString","coordinates":[[-95.45362958238226,29.74507658164775],[-95.45362958238226,29.74507658164775]]},"properties":{"dataset":"route","status":"ACTIVE","tags":["houston-tx-metro-targets"],"address":"4323 San Felipe St","city":"Houston","state":"TX","postalCode":"77027","name":"Target"}},{"type":"Feature","geometry":{"type":"LineString","coordinates":[[-95.54213785972112,29.782451009519765],[-95.54213785972112,29.782451009519765]]},"properties":{"dataset":"route","status":"ACTIVE","tags":["houston-tx-metro-targets"],"address":"984 Gessner Rd","city":"Houston","state":"TX","postalCode":"77024","name":"Target"}},{"type":"Feature","geometry":{"type":"LineString","coordinates":[[-95.462403432708,29.686719006040402],[-95.462403432708,29.686719006040402]]},"properties":{"dataset":"route","status":"ACTIVE","tags":["houston-tx-metro-targets"],"address":"300 Meyerland Plaza Mall","city":"Houston","state":"TX","postalCode":"77096","name":"Target"}},{"type":"Feature","geometry":{"type":"LineString","coordinates":[[-95.6267438421302,29.732804941168112],[-95.6267438421302,29.732804941168112]]},"properties":{"dataset":"route","status":"ACTIVE","tags":["houston-tx-metro-targets"],"address":"2700 Eldridge Pkwy","city":"Houston","state":"TX","postalCode":"77082","name":"Target"}},{"type":"Feature","geometry":{"type":"LineString","coordinates":[[-95.38386608166181,29.55323364184265],[-95.38386608166181,29.55323364184265]]},"properties":{"dataset":"route","status":"ACTIVE","tags":["houston-tx-metro-targets"],"address":"3045 Silverlake Village Dr","city":"Pearland","state":"TX","postalCode":"77584","name":"Target"}},{"type":"Feature","geometry":{"type":"LineString","coordinates":[[-95.5174901003278,29.735120688291364],[-95.5174901003278,29.735120688291364]]},"properties":{"dataset":"route","status":"ACTIVE","tags":["houston-tx-metro-targets"],"address":"8605 Westheimer Rd","city":"Houston","state":"TX","postalCode":"77063","name":"Target"}},{"type":"Feature","geometry":{"type":"LineString","coordinates":[[-95.50263827750311,29.849260379664457],[-95.50263827750311,29.849260379664457]]},"properties":{"dataset":"route","status":"ACTIVE","tags":["houston-tx-metro-targets"],"address":"13250 Northwest Fwy","city":"Houston","state":"TX","postalCode":"77040","name":"Target"}},{"type":"Feature","geometry":{"type":"LineString","coordinates":[[-95.1524904211031,29.65231116078195],[-95.1524904211031,29.65231116078195]]},"properties":{"dataset":"route","status":"ACTIVE","tags":["houston-tx-metro-targets"],"address":"5757 Fairmont Pkwy","city":"Pasadena","state":"TX","postalCode":"77505","name":"Target"}},{"type":"Feature","geometry":{"type":"LineString","coordinates":[[-95.26454888740288,29.602102189467733],[-95.26454888740288,29.602102189467733]]},"properties":{"dataset":"route","status":"ACTIVE","tags":["houston-tx-metro-targets"],"address":"8503 S Sam Houston Pkwy E","city":"Houston","state":"TX","postalCode":"77075","name":"Target"}},{"type":"Feature","geometry":{"type":"LineString","coordinates":[[-95.56825485108713,29.735493661085858],[-95.56825485108713,29.735493661085858]]},"properties":{"dataset":"route","status":"ACTIVE","tags":["houston-tx-metro-targets"],"address":"10801 Westheimer Rd","city":"Houston","state":"TX","postalCode":"77042","name":"Target"}},{"type":"Feature","geometry":{"type":"LineString","coordinates":[[-95.627799,29.596071],[-95.627799,29.596071]]},"properties":{"dataset":"route","status":"ACTIVE","tags":["houston-tx-metro-targets"],"address":"16300 Southwest Fwy","city":"Sugar Land","state":"TX","postalCode":"77479","name":"Target"}},{"type":"Feature","geometry":{"type":"LineString","coordinates":[[-95.409419,29.741131],[-95.409419,29.741131]]},"properties":{"dataset":"route","status":"ACTIVE","tags":["houston-tx-metro-targets"],"address":"2075 Westheimer Rd","city":"Houston","state":"TX","postalCode":"77098","name":"Target"}},{"type":"Feature","geometry":{"type":"LineString","coordinates":[[-95.15131372691575,29.536540006866534],[-95.15131372691575,29.536540006866534]]},"properties":{"dataset":"route","status":"ACTIVE","tags":["houston-tx-metro-targets"],"address":"1801 W Bay Area Blvd","city":"Webster","state":"TX","postalCode":"77598","name":"Target"}},{"type":"Feature","geometry":{"type":"LineString","coordinates":[[-95.43442143330343,30.050390048148827],[-95.43442143330343,30.050390048148827]]},"properties":{"dataset":"route","status":"ACTIVE","tags":["houston-tx-metro-targets"],"address":"19511 Interstate 45","city":"Spring","state":"TX","postalCode":"77388","name":"Target"}},{"type":"Feature","geometry":{"type":"LineString","coordinates":[[-95.53110870819143,29.967817644588504],[-95.53110870819143,29.967817644588504]]},"properties":{"dataset":"route","status":"ACTIVE","tags":["houston-tx-metro-targets"],"address":"6801 FM 1960 Rd W","city":"Houston","state":"TX","postalCode":"77069","name":"Target"}},{"type":"Feature","geometry":{"type":"LineString","coordinates":[[-95.56789569319234,29.566198807212526],[-95.56789569319234,29.566198807212526]]},"properties":{"dataset":"route","status":"ACTIVE","tags":["houston-tx-metro-targets"],"address":"6000 Highway 6","city":"Missouri City","state":"TX","postalCode":"77459","name":"Target"}},{"type":"Feature","geometry":{"type":"LineString","coordinates":[[-95.775962,29.7358044],[-95.775962,29.7358044]]},"properties":{"dataset":"route","status":"ACTIVE","tags":["houston-tx-metro-targets"],"address":"23710 Westheimer Pkwy","city":"Katy","state":"TX","postalCode":"77494","name":"Target"}},{"type":"Feature","geometry":{"type":"LineString","coordinates":[[-95.58423021252734,29.999891646659176],[-95.58423021252734,29.999891646659176]]},"properties":{"dataset":"route","status":"ACTIVE","tags":["houston-tx-metro-targets"],"address":"21515 State Highway 249","city":"Houston","state":"TX","postalCode":"77070","name":"Target"}},{"type":"Feature","geometry":{"type":"LineString","coordinates":[[-95.64681126841685,29.87751497081766],[-95.64681126841685,29.87751497081766]]},"properties":{"dataset":"route","status":"ACTIVE","tags":["houston-tx-metro-targets"],"address":"6955 Highway 6 N","city":"Houston","state":"TX","postalCode":"77084","name":"Target"}},{"type":"Feature","geometry":{"type":"LineString","coordinates":[[-95.17269556460901,30.00055415493944],[-95.17269556460901,30.00055415493944]]},"properties":{"dataset":"route","status":"ACTIVE","tags":["houston-tx-metro-targets"],"address":"6931 FM 1960 Rd E","city":"Atascocita","state":"TX","postalCode":"77346","name":"Target"}},{"type":"Feature","geometry":{"type":"LineString","coordinates":[[-95.60500228655664,29.919220830290005],[-95.60500228655664,29.919220830290005]]},"properties":{"dataset":"route","status":"ACTIVE","tags":["houston-tx-metro-targets"],"address":"12701 FM 1960 Rd W","city":"Houston","state":"TX","postalCode":"77065","name":"Target"}},{"type":"Feature","geometry":{"type":"LineString","coordinates":[[-95.45346326806491,30.169450583689613],[-95.45346326806491,30.169450583689613]]},"properties":{"dataset":"route","status":"ACTIVE","tags":["houston-tx-metro-targets"],"address":"1100 Lake Woodlands Dr","city":"The Woodlands","state":"TX","postalCode":"77380","name":"Target"}},{"type":"Feature","geometry":{"type":"LineString","coordinates":[[-95.2686303,30.0191404],[-95.2686303,30.0191404]]},"properties":{"dataset":"route","status":"ACTIVE","tags":["houston-tx-metro-targets"],"address":"20777 Highway 59 N","city":"Humble","state":"TX","postalCode":"77338","name":"Target"}},{"type":"Feature","geometry":{"type":"LineString","coordinates":[[-95.02256318739892,29.53924243748492],[-95.02256318739892,29.53924243748492]]},"properties":{"dataset":"route","status":"ACTIVE","tags":["houston-tx-metro-targets"],"address":"255 Marina Bay Dr","city":"Clear Lake Shores","state":"TX","postalCode":"77565","name":"Target"}},{"type":"Feature","geometry":{"type":"LineString","coordinates":[[-94.97627837799706,29.77169708412363],[-94.97627837799706,29.77169708412363]]},"properties":{"dataset":"route","status":"ACTIVE","tags":["houston-tx-metro-targets"],"address":"4510 Garth Rd","city":"Baytown","state":"TX","postalCode":"77521","name":"Target"}},{"type":"Feature","geometry":{"type":"LineString","coordinates":[[-95.08512123482551,29.46615050127715],[-95.08512123482551,29.46615050127715]]},"properties":{"dataset":"route","status":"ACTIVE","tags":["houston-tx-metro-targets"],"address":"1801 Gulf Fwy","city":"Dickinson","state":"TX","postalCode":"77539","name":"Target"}},{"type":"Feature","geometry":{"type":"LineString","coordinates":[[-95.71056418825226,29.658281278752884],[-95.71056418825226,29.658281278752884]]},"properties":{"dataset":"route","status":"ACTIVE","tags":["houston-tx-metro-targets"],"address":"10241 W Grand Pkwy S","city":"Richmond","state":"TX","postalCode":"77407","name":"Target"}},{"type":"Feature","geometry":{"type":"LineString","coordinates":[[-95.71606636047363,29.782164440446582],[-95.71606636047363,29.782164440446582]]},"properties":{"dataset":"route","status":"ACTIVE","tags":["houston-tx-metro-targets"],"address":"19955 Katy Fwy","city":"Houston","state":"TX","postalCode":"77094","name":"Target"}}]}