{"type":"FeatureCollection","features":[{"type":"Feature","geometry":{"type":"LineString","coordinates":[[-95.40112738315426,29.772820334710868],[-95.40112738315426,29.772820334710868]]},"properties":{"dataset":"route","status":"ACTIVE","tags":["houston-tx-metro-walmarts"],"address":"111 Yale St","city":"Houston","state":"TX","postalCode":"77007","name":"Walmart Supercenter"}},{"type":"Feature","geometry":{"type":"LineString","coordinates":[[-95.46533072207033,29.72310341009565],[-95.46533072207033,29.72310341009565]]},"properties":{"dataset":"route","status":"ACTIVE","tags":["houston-tx-metro-walmarts"],"address":"5405 South Rice Avenue","city":"Houston","state":"TX","postalCode":"77081","name":"Walmart Supercenter"}},{"type":"Feature","geometry":{"type":"LineString","coordinates":[[-95.46555544737775,29.788781050993975],[-95.46555544737775,29.788781050993975]]},"properties":{"dataset":"route","status":"ACTIVE","tags":["houston-tx-metro-walmarts"],"address":"1118 Silber Rd","city":"Houston","state":"TX","postalCode":"77055","name":"Walmart Supercenter"}},{"type":"Feature","geometry":{"type":"LineString","coordinates":[[-95.31322587435099,29.716042492582066],[-95.31322587435099,29.716042492582066]]},"properties":{"dataset":"route","status":"ACTIVE","tags":["houston-tx-metro-walmarts"],"address":"2391 S Wayside Dr","city":"Houston","state":"TX","postalCode":"77023","name":"Walmart Supercenter"}},{"type":"Feature","geometry":{"type":"LineString","coordinates":[[-95.5121431387531,29.735564403455268],[-95.5121431387531,29.735564403455268]]},"properties":{"dataset":"route","status":"ACTIVE","tags":["houston-tx-metro-walmarts"],"address":"2727 Dunvale Rd","city":"Houston","state":"TX","postalCode":"77063","name":"Walmart Supercenter"}},{"type":"Feature","geometry":{"type":"LineString","coordinates":[[-95.45756722086915,29.67645996907825],[-95.45756722086915,29.67645996907825]]},"properties":{"dataset":"route","status":"ACTIVE","tags":["houston-tx-metro-walmarts"],"address":"9555 S Post Oak Rd","city":"Houston","state":"TX","postalCode":"77096","name":"Walmart"}},{"type":"Feature","geometry":{"type":"LineString","coordinates":[[-95.37763596,29.82990382],[-95.37763596,29.82990382]]},"properties":{"dataset":"route","status":"ACTIVE","tags":["houston-tx-metro-walmarts"],"address":"4412 North Fwy","city":"Houston","state":"TX","postalCode":"77022","name":"Walmart Supercenter"}},{"type":"Feature","geometry":{"type":"LineString","coordinates":[[-95.50881927609771,29.853454008089315],[-95.50881927609771,29.853454008089315]]},"properties":{"dataset":"route","status":"ACTIVE","tags":["houston-tx-metro-walmarts"],"address":"13484 Northwest Fwy","city":"Houston","state":"TX","postalCode":"77040","name":"Walmart Supercenter"}},{"type":"Feature","geometry":{"type":"LineString","coordinates":[[-95.59106644520517,29.73339441721616],[-95.59106644520517,29.73339441721616]]},"properties":{"dataset":"route","status":"ACTIVE","tags":["houston-tx-metro-walmarts"],"address":"2700 S Kirkwood Rd","city":"Houston","state":"TX","postalCode":"77077","name":"Walmart Supercenter"}},{"type":"Feature","geometry":{"type":"LineString","coordinates":[[-95.16491348283272,29.806578322602665],[-95.16491348283272,29.806578322602665]]},"properties":{"dataset":"route","status":"ACTIVE","tags":["houston-tx-metro-walmarts"],"address":"5655 E Sam Houston Pkwy N","city":"Houston","state":"TX","postalCode":"77015","name":"Walmart Supercenter"}},{"type":"Feature","geometry":{"type":"LineString","coordinates":[[-95.4150255804732,29.918278276488756],[-95.4150255804732,29.918278276488756]]},"properties":{"dataset":"route","status":"ACTIVE","tags":["houston-tx-metro-walmarts"],"address":"10411 N Freeway 45","city":"Houston","state":"TX","postalCode":"77037","name":"Walmart Supercenter"}},{"type":"Feature","geometry":{"type":"LineString","coordinates":[[-95.21000862,29.69293658],[-95.21000862,29.69293658]]},"properties":{"dataset":"route","status":"ACTIVE","tags":["houston-tx-metro-walmarts"],"address":"1107 Shaver St","city":"Pasadena","state":"TX","postalCode":"77506","name":"Walmart Supercenter"}},{"type":"Feature","geometry":{"type":"LineString","coordinates":[[-95.25252556154366,29.93658512456824],[-95.25252556154366,29.93658512456824]]},"properties":{"dataset":"route","status":"ACTIVE","tags":["houston-tx-metro-walmarts"],"address":"9235 N Sam Houston Pkwy E","city":"Humble","state":"TX","postalCode":"77396","name":"Walmart Supercenter"}},{"type":"Feature","geometry":{"type":"LineString","coordinates":[[-95.38275699299078,29.55768450074555],[-95.38275699299078,29.55768450074555]]},"properties":{"dataset":"route","status":"ACTIVE","tags":["houston-tx-metro-walmarts"],"address":"10505 Broadway St","city":"Pearland","state":"TX","postalCode":"77584","name":"Walmart Supercenter"}},{"type":"Feature","geometry":{"type":"LineString","coordinates":[[-95.23732910946643,29.630612128021674],[-95.23732910946643,29.630612128021674]]},"properties":{"dataset":"route","status":"ACTIVE","tags":["houston-tx-metro-walmarts"],"address":"9598 Rowlett Rd","city":"Houston","state":"TX","postalCode":"77075","name":"Walmart Supercenter"}},{"type":"Feature","geometry":{"type":"LineString","coordinates":[[-95.56479610078546,29.792863755499617],[-95.56479610078546,29.792863755499617]]},"properties":{"dataset":"route","status":"ACTIVE","tags":["houston-tx-metro-walmarts"],"address":"10750 Westview Dr","city":"Houston","state":"TX","postalCode":"77043","name":"Walmart Supercenter"}},{"type":"Feature","geometry":{"type":"LineString","coordinates":[[-95.16144458386283,29.646880262801737],[-95.16144458386283,29.646880262801737]]},"properties":{"dataset":"route","status":"ACTIVE","tags":["houston-tx-metro-walmarts"],"address":"5200 Fairmont Pkwy","city":"Pasadena","state":"TX","postalCode":"77505","name":"Walmart Supercenter"}},{"type":"Feature","geometry":{"type":"LineString","coordinates":[[-95.57317591453138,29.643714752761518],[-95.57317591453138,29.643714752761518]]},"properties":{"dataset":"route","status":"ACTIVE","tags":["houston-tx-metro-walmarts"],"address":"11210 W Airport Blvd","city":"Stafford","state":"TX","postalCode":"77477","name":"Walmart Supercenter"}},{"type":"Feature","geometry":{"type":"LineString","coordinates":[[-95.17718780353536,29.768585629243262],[-95.17718780353536,29.768585629243262]]},"properties":{"dataset":"route","status":"ACTIVE","tags":["houston-tx-metro-walmarts"],"address":"13750 East Fwy","city":"Houston","state":"TX","postalCode":"77015","name":"Walmart Supercenter"}},{"type":"Feature","geometry":{"type":"LineString","coordinates":[[-95.56092739,29.67973851],[-95.56092739,29.67973851]]},"properties":{"dataset":"route","status":"ACTIVE","tags":["houston-tx-metro-walmarts"],"address":"9460 W Sam Houston Pkwy S","city":"Houston","state":"TX","postalCode":"77099","name":"Walmart Supercenter"}},{"type":"Feature","geometry":{"type":"LineString","coordinates":[[-95.10005563760843,29.66670784225446],[-95.10005563760843,29.66670784225446]]},"properties":{"dataset":"route","status":"ACTIVE","tags":["houston-tx-metro-walmarts"],"address":"9025 Spencer Hwy","city":"La Porte","state":"TX","postalCode":"77571","name":"Walmart Supercenter"}},{"type":"Feature","geometry":{"type":"LineString","coordinates":[[-95.1592511893669,29.55204985699984],[-95.1592511893669,29.55204985699984]]},"properties":{"dataset":"route","status":"ACTIVE","tags":["houston-tx-metro-walmarts"],"address":"150 W El Dorado Blvd","city":"Friendswood","state":"TX","postalCode":"77546","name":"Walmart Supercenter"}},{"type":"Feature","geometry":{"type":"LineString","coordinates":[[-95.48694411,29.9136671],[-95.48694411,29.9136671]]},"properties":{"dataset":"route","status":"ACTIVE","tags":["houston-tx-metro-walmarts"],"address":"13003 Tomball Pkwy","city":"Houston","state":"TX","postalCode":"77086","name":"Walmart Supercenter"}},{"type":"Feature","geometry":{"type":"LineString","coordinates":[[-95.56848283257197,29.57374229227293],[-95.56848283257197,29.57374229227293]]},"properties":{"dataset":"route","status":"ACTIVE","tags":["houston-tx-metro-walmarts"],"address":"5501 Highway 6","city":"Missouri City","state":"TX","postalCode":"77459","name":"Walmart Supercenter"}},{"type":"Feature","geometry":{"type":"LineString","coordinates":[[-95.28345903068073,29.57324813490565],[-95.28345903068073,29.57324813490565]]},"properties":{"dataset":"route","status":"ACTIVE","tags":["houston-tx-metro-walmarts"],"address":"1919 N Main St","city":"Pearland","state":"TX","postalCode":"77581","name":"Walmart Supercenter"}},{"type":"Feature","geometry":{"type":"LineString","coordinates":[[-95.17655554653733,29.996114023724356],[-95.17655554653733,29.996114023724356]]},"properties":{"dataset":"route","status":"ACTIVE","tags":["houston-tx-metro-walmarts"],"address":"6626 Fm 1960 Rd E","city":"Humble","state":"TX","postalCode":"77346","name":"Walmart Supercenter"}},{"type":"Feature","geometry":{"type":"LineString","coordinates":[[-95.64682245,29.72117239],[-95.64682245,29.72117239]]},"properties":{"dataset":"route","status":"ACTIVE","tags":["houston-tx-metro-walmarts"],"address":"3506 Highway 6 S","city":"Houston","state":"TX","postalCode":"77082","name":"Walmart Supercenter"}},{"type":"Feature","geometry":{"type":"LineString","coordinates":[[-95.23578376825981,29.54615285320242],[-95.23578376825981,29.54615285320242]]},"properties":{"dataset":"route","status":"ACTIVE","tags":["houston-tx-metro-walmarts"],"address":"1710 Broadway St","city":"Pearland","state":"TX","postalCode":"77581","name":"Walmart Supercenter"}},{"type":"Feature","geometry":{"type":"LineString","coordinates":[[-95.4841789313153,29.99779059876886],[-95.4841789313153,29.99779059876886]]},"properties":{"dataset":"route","status":"ACTIVE","tags":["houston-tx-metro-walmarts"],"address":"3450 Fm 1960 Rd W","city":"Houston","state":"TX","postalCode":"77068","name":"Walmart Supercenter"}},{"type":"Feature","geometry":{"type":"LineString","coordinates":[[-95.64474213777241,29.613363632572202],[-95.64474213777241,29.613363632572202]]},"properties":{"dataset":"route","status":"ACTIVE","tags":["houston-tx-metro-walmarts"],"address":"345 Highway 6","city":"Sugar Land","state":"TX","postalCode":"77478","name":"Walmart Supercenter"}}]}