{"type":"FeatureCollection","features":[{"type":"Feature","geometry":{"type":"LineString","coordinates":[[-118.32562737140495,34.188434455327375],[-118.32562737140495,34.188434455327375]]},"properties":{"dataset":"route","status":"ACTIVE","tags":["us-la-food-stores-walmart"],"address":"1301 N Victory Pl","city":"Burbank","state":"CA","postalCode":"91502","name":"Walmart Supercenter"}},{"type":"Feature","geometry":{"type":"LineString","coordinates":[[-118.08493385246466,34.050545255828396],[-118.08493385246466,34.050545255828396]]},"properties":{"dataset":"route","status":"ACTIVE","tags":["us-la-food-stores-walmart"],"address":"1827 Walnut Grove Ave","city":"Rosemead","state":"CA","postalCode":"91770","name":"Walmart Supercenter"}},{"type":"Feature","geometry":{"type":"LineString","coordinates":[[-118.18758640408245,33.95470020691988],[-118.18758640408245,33.95470020691988]]},"properties":{"dataset":"route","status":"ACTIVE","tags":["us-la-food-stores-walmart"],"address":"4651 Firestone Blvd","city":"South Gate","state":"CA","postalCode":"90280","name":"Walmart Supercenter"}},{"type":"Feature","geometry":{"type":"LineString","coordinates":[[-118.3005502269743,33.85669912000714],[-118.3005502269743,33.85669912000714]]},"properties":{"dataset":"route","status":"ACTIVE","tags":["us-la-food-stores-walmart"],"address":"19503 Normandie Ave","city":"Torrance","state":"CA","postalCode":"90501","name":"Walmart"}},{"type":"Feature","geometry":{"type":"LineString","coordinates":[[-118.12865394062963,33.92428296695667],[-118.12865394062963,33.92428296695667]]},"properties":{"dataset":"route","status":"ACTIVE","tags":["us-la-food-stores-walmart"],"address":"9001 Apollo Way","city":"Downey","state":"CA","postalCode":"90242","name":"Walmart Supercenter"}},{"type":"Feature","geometry":{"type":"LineString","coordinates":[[-118.10363739765306,33.98683598365178],[-118.10363739765306,33.98683598365178]]},"properties":{"dataset":"route","status":"ACTIVE","tags":["us-la-food-stores-walmart"],"address":"8500 Washington Blvd","city":"Pico Rivera","state":"CA","postalCode":"90660","name":"Walmart Supercenter"}},{"type":"Feature","geometry":{"type":"LineString","coordinates":[[-117.98435790877794,34.13417828728171],[-117.98435790877794,34.13417828728171]]},"properties":{"dataset":"route","status":"ACTIVE","tags":["us-la-food-stores-walmart"],"address":"1600 Mountain Ave","city":"Duarte","state":"CA","postalCode":"91010","name":"Walmart"}},{"type":"Feature","geometry":{"type":"LineString","coordinates":[[-118.35327296283248,33.82810213859199],[-118.35327296283248,33.82810213859199]]},"properties":{"dataset":"route","status":"ACTIVE","tags":["us-la-food-stores-walmart"],"address":"22015 Hawthorne Blvd","city":"Torrance","state":"CA","postalCode":"90503","name":"Walmart"}},{"type":"Feature","geometry":{"type":"LineString","coordinates":[[-118.20808003514023,33.91004872619466],[-118.20808003514023,33.91004872619466]]},"properties":{"dataset":"route","status":"ACTIVE","tags":["us-la-food-stores-walmart"],"address":"2100 N Long Beach Blvd","city":"Compton","state":"CA","postalCode":"90221","name":"Walmart Supercenter"}},{"type":"Feature","geometry":{"type":"LineString","coordinates":[[-118.45026261751467,34.22265945945061],[-118.45026261751467,34.22265945945061]]},"properties":{"dataset":"route","status":"ACTIVE","tags":["us-la-food-stores-walmart"],"address":"8333 Van Nuys Blvd","city":"Panorama City","state":"CA","postalCode":"91402","name":"Walmart"}},{"type":"Feature","geometry":{"type":"LineString","coordinates":[[-118.15846193185081,33.83057566795939],[-118.15846193185081,33.83057566795939]]},"properties":{"dataset":"route","status":"ACTIVE","tags":["us-la-food-stores-walmart"],"address":"2770 Carson St","city":"Lakewood","state":"CA","postalCode":"90712","name":"Walmart Supercenter"}},{"type":"Feature","geometry":{"type":"LineString","coordinates":[[-118.06144864685976,33.87230577329827],[-118.06144864685976,33.87230577329827]]},"properties":{"dataset":"route","status":"ACTIVE","tags":["us-la-food-stores-walmart"],"address":"12701 Towne Center Dr","city":"Cerritos","state":"CA","postalCode":"90703","name":"Walmart Supercenter"}},{"type":"Feature","geometry":{"type":"LineString","coordinates":[[-118.14773247944073,33.861217088009454],[-118.14773247944073,33.861217088009454]]},"properties":{"dataset":"route","status":"ACTIVE","tags":["us-la-food-stores-walmart"],"address":"3705 E South St","city":"Long Beach","state":"CA","postalCode":"90805","name":"Walmart Supercenter"}},{"type":"Feature","geometry":{"type":"LineString","coordinates":[[-118.04913103580473,33.94062743857672],[-118.04913103580473,33.94062743857672]]},"properties":{"dataset":"route","status":"ACTIVE","tags":["us-la-food-stores-walmart"],"address":"13310 Telegraph Rd","city":"Santa Fe Springs","state":"CA","postalCode":"90670","name":"Walmart Supercenter"}},{"type":"Feature","geometry":{"type":"LineString","coordinates":[[-117.98658728599548,33.84469912644004],[-117.98658728599548,33.84469912644004]]},"properties":{"dataset":"route","status":"ACTIVE","tags":["us-la-food-stores-walmart"],"address":"8450 La Palma Ave","city":"Buena Park","state":"CA","postalCode":"90620","name":"Walmart"}},{"type":"Feature","geometry":{"type":"LineString","coordinates":[[-117.96636376606044,33.91493030993243],[-117.96636376606044,33.91493030993243]]},"properties":{"dataset":"route","status":"ACTIVE","tags":["us-la-food-stores-walmart"],"address":"1340 S Beach Blvd","city":"La Habra","state":"CA","postalCode":"90631","name":"Walmart Supercenter"}},{"type":"Feature","geometry":{"type":"LineString","coordinates":[[-118.09082376657382,33.829116466088216],[-118.09082376657382,33.829116466088216]]},"properties":{"dataset":"route","status":"ACTIVE","tags":["us-la-food-stores-walmart"],"address":"7250 Carson Blvd","city":"Long Beach","state":"CA","postalCode":"90808","name":"Walmart Supercenter"}},{"type":"Feature","geometry":{"type":"LineString","coordinates":[[-118.14503452916975,33.902185305724885],[-118.14503452916975,33.902185305724885]]},"properties":{"dataset":"route","status":"ACTIVE","tags":["us-la-food-stores-walmart"],"address":"14501 Lakewood Blvd","city":"Paramount","state":"CA","postalCode":"90723","name":"Walmart Supercenter"}},{"type":"Feature","geometry":{"type":"LineString","coordinates":[[-117.96335,34.071179],[-117.96335,34.071179]]},"properties":{"dataset":"route","status":"ACTIVE","tags":["us-la-food-stores-walmart"],"address":"3250 Big Dalton Ave","city":"Baldwin Park","state":"CA","postalCode":"91706","name":"Walmart (Walmart Bakery)"}},{"type":"Feature","geometry":{"type":"LineString","coordinates":[[-117.9631725,34.07175438],[-117.9631725,34.07175438]]},"properties":{"dataset":"route","status":"ACTIVE","tags":["us-la-food-stores-walmart"],"address":"3250 Big Dalton Ave","city":"Baldwin Park","state":"CA","postalCode":"91706","name":"Walmart Supercenter"}},{"type":"Feature","geometry":{"type":"LineString","coordinates":[[-117.86574062959373,33.91303238677791],[-117.86574062959373,33.91303238677791]]},"properties":{"dataset":"route","status":"ACTIVE","tags":["us-la-food-stores-walmart"],"address":"2595 E Imperial Hwy","city":"Brea","state":"CA","postalCode":"92821","name":"Walmart"}},{"type":"Feature","geometry":{"type":"LineString","coordinates":[[-118.62492738271355,34.188117823192314],[-118.62492738271355,34.188117823192314]]},"properties":{"dataset":"route","status":"ACTIVE","tags":["us-la-food-stores-walmart"],"address":"6433 Fallbrook Ave","city":"West Hills","state":"CA","postalCode":"91307","name":"Walmart"}},{"type":"Feature","geometry":{"type":"LineString","coordinates":[[-117.93247411646713,33.99862674224794],[-117.93247411646713,33.99862674224794]]},"properties":{"dataset":"route","status":"ACTIVE","tags":["us-la-food-stores-walmart"],"address":"17150 Gale Ave","city":"Industry","state":"CA","postalCode":"91745","name":"Walmart Supercenter"}},{"type":"Feature","geometry":{"type":"LineString","coordinates":[[-117.91881005236101,33.85784429015064],[-117.91881005236101,33.85784429015064]]},"properties":{"dataset":"route","status":"ACTIVE","tags":["us-la-food-stores-walmart"],"address":"88 E Orangethorpe Ave","city":"Anaheim","state":"CA","postalCode":"92801","name":"Walmart Supercenter"}},{"type":"Feature","geometry":{"type":"LineString","coordinates":[[-117.90919386785964,34.10296683092714],[-117.90919386785964,34.10296683092714]]},"properties":{"dataset":"route","status":"ACTIVE","tags":["us-la-food-stores-walmart"],"address":"1275 N Azusa Ave","city":"Covina","state":"CA","postalCode":"91722","name":"Walmart Supercenter"}},{"type":"Feature","geometry":{"type":"LineString","coordinates":[[-117.985771341954,33.70006427885469],[-117.985771341954,33.70006427885469]]},"properties":{"dataset":"route","status":"ACTIVE","tags":["us-la-food-stores-walmart"],"address":"8230 Talbert Ave","city":"Huntington Beach","state":"CA","postalCode":"92646","name":"Walmart"}},{"type":"Feature","geometry":{"type":"LineString","coordinates":[[-117.88687145037164,34.07335464205769],[-117.88687145037164,34.07335464205769]]},"properties":{"dataset":"route","status":"ACTIVE","tags":["us-la-food-stores-walmart"],"address":"2753 E. Eastland Center Dr, Ste 5555","city":"West Covina","state":"CA","postalCode":"91791","name":"Walmart Supercenter"}},{"type":"Feature","geometry":{"type":"LineString","coordinates":[[-117.96480909654242,33.79073523743586],[-117.96480909654242,33.79073523743586]]},"properties":{"dataset":"route","status":"ACTIVE","tags":["us-la-food-stores-walmart"],"address":"11822 Gilbert St","city":"Garden Grove","state":"CA","postalCode":"92841","name":"Walmart Supercenter"}},{"type":"Feature","geometry":{"type":"LineString","coordinates":[[-117.9387416,33.83636364],[-117.9387416,33.83636364]]},"properties":{"dataset":"route","status":"ACTIVE","tags":["us-la-food-stores-walmart"],"address":"440 N Euclid St","city":"Anaheim","state":"CA","postalCode":"92801","name":"Walmart Supercenter"}},{"type":"Feature","geometry":{"type":"LineString","coordinates":[[-118.56727273471395,34.277221756197704],[-118.56727273471395,34.277221756197704]]},"properties":{"dataset":"route","status":"ACTIVE","tags":["us-la-food-stores-walmart"],"address":"19821 Rinaldi St","city":"Porter Ranch","state":"CA","postalCode":"91326","name":"Walmart Supercenter"}}]}