{"type":"FeatureCollection","features":[{"type":"Feature","geometry":{"type":"LineString","coordinates":[[-118.26089064763896,34.048769152386676],[-118.26089064763896,34.048769152386676]]},"properties":{"dataset":"route","status":"ACTIVE","tags":["los-angeles-ca-metro-targets}"],"address":"735 S Figueroa St","city":"Los Angeles","state":"CA","postalCode":"90017","name":"Target"}},{"type":"Feature","geometry":{"type":"LineString","coordinates":[[-118.14748079792446,34.09108439073888],[-118.14748079792446,34.09108439073888]]},"properties":{"dataset":"route","status":"ACTIVE","tags":["los-angeles-ca-metro-targets}"],"address":"2120 W Main St","city":"Alhambra","state":"CA","postalCode":"91801","name":"Target"}},{"type":"Feature","geometry":{"type":"LineString","coordinates":[[-118.22429384368343,34.141498913778584],[-118.22429384368343,34.141498913778584]]},"properties":{"dataset":"route","status":"ACTIVE","tags":["los-angeles-ca-metro-targets}"],"address":"2626 Colorado Blvd","city":"Los Angeles","state":"CA","postalCode":"90041","name":"Target"}},{"type":"Feature","geometry":{"type":"LineString","coordinates":[[-118.309755,34.0978198],[-118.309755,34.0978198]]},"properties":{"dataset":"route","status":"ACTIVE","tags":["los-angeles-ca-metro-targets}"],"address":"5500 W Sunset Blvd","city":"Los Angeles","state":"CA","postalCode":"90028","name":"Target"}},{"type":"Feature","geometry":{"type":"LineString","coordinates":[[-118.37546061351601,34.07501061420209],[-118.37546061351601,34.07501061420209]]},"properties":{"dataset":"route","status":"ACTIVE","tags":["los-angeles-ca-metro-targets}"],"address":"8480 Beverly Blvd","city":"Los Angeles","state":"CA","postalCode":"90048","name":"Target"}},{"type":"Feature","geometry":{"type":"LineString","coordinates":[[-118.37342083454132,34.02258229566169],[-118.37342083454132,34.02258229566169]]},"properties":{"dataset":"route","status":"ACTIVE","tags":["los-angeles-ca-metro-targets}"],"address":"3535 S La Cienega Blvd","city":"Los Angeles","state":"CA","postalCode":"90016","name":"Target"}},{"type":"Feature","geometry":{"type":"LineString","coordinates":[[-118.258603,34.142998],[-118.258603,34.142998]]},"properties":{"dataset":"route","status":"ACTIVE","tags":["los-angeles-ca-metro-targets}"],"address":"2195 Glendale Galleria","city":"Glendale","state":"CA","postalCode":"91210","name":"Target"}},{"type":"Feature","geometry":{"type":"LineString","coordinates":[[-118.34455970463546,34.089964482467],[-118.34455970463546,34.089964482467]]},"properties":{"dataset":"route","status":"ACTIVE","tags":["los-angeles-ca-metro-targets}"],"address":"7100 Santa Monica Blvd Ste 201","city":"West Hollywood","state":"CA","postalCode":"90046","name":"Target"}},{"type":"Feature","geometry":{"type":"LineString","coordinates":[[-118.33033,34.18962],[-118.33033,34.18962]]},"properties":{"dataset":"route","status":"ACTIVE","tags":["los-angeles-ca-metro-targets}"],"address":"1800 W Empire Ave","city":"Burbank","state":"CA","postalCode":"91504","name":"Target"}},{"type":"Feature","geometry":{"type":"LineString","coordinates":[[-118.39332552286578,33.99895861001252],[-118.39332552286578,33.99895861001252]]},"properties":{"dataset":"route","status":"ACTIVE","tags":["los-angeles-ca-metro-targets}"],"address":"10820 Jefferson Blvd","city":"Culver City","state":"CA","postalCode":"90230","name":"Target"}},{"type":"Feature","geometry":{"type":"LineString","coordinates":[[-118.13448197687684,34.1464632831055],[-118.13448197687684,34.1464632831055]]},"properties":{"dataset":"route","status":"ACTIVE","tags":["los-angeles-ca-metro-targets}"],"address":"777 E Colorado Blvd","city":"Pasadena","state":"CA","postalCode":"91101","name":"Target"}},{"type":"Feature","geometry":{"type":"LineString","coordinates":[[-118.26448068609942,34.04486211105791],[-118.26448068609942,34.04486211105791]]},"properties":{"dataset":"route","status":"ACTIVE","tags":["los-angeles-ca-metro-targets}"],"address":"800 W Olympic Blvd","city":"Los Angeles","state":"CA","postalCode":"90015","name":"Target Terrace - LA Live"}},{"type":"Feature","geometry":{"type":"LineString","coordinates":[[-118.39462425004291,33.8882861957686],[-118.39462425004291,33.8882861957686]]},"properties":{"dataset":"route","status":"ACTIVE","tags":["los-angeles-ca-metro-targets}"],"address":"1200 N Sepulveda Blvd","city":"Manhattan Beach","state":"CA","postalCode":"90266","name":"Target"}},{"type":"Feature","geometry":{"type":"LineString","coordinates":[[-118.07019031396854,34.074566841209716],[-118.07019031396854,34.074566841209716]]},"properties":{"dataset":"route","status":"ACTIVE","tags":["los-angeles-ca-metro-targets}"],"address":"3600 Rosemead Blvd","city":"Rosemead","state":"CA","postalCode":"91770","name":"Target"}},{"type":"Feature","geometry":{"type":"LineString","coordinates":[[-118.39444523920041,33.9852100462026],[-118.39444523920041,33.9852100462026]]},"properties":{"dataset":"route","status":"ACTIVE","tags":["los-angeles-ca-metro-targets}"],"address":"6000 Sepulveda Blvd","city":"Culver City","state":"CA","postalCode":"90230","name":"Target"}},{"type":"Feature","geometry":{"type":"LineString","coordinates":[[-118.2843432845402,34.025647645644824],[-118.2843432845402,34.025647645644824]]},"properties":{"dataset":"route","status":"ACTIVE","tags":["los-angeles-ca-metro-targets}"],"address":"3131 S Hoover St","city":"Los Angeles","state":"CA","postalCode":"90089","name":"Target"}},{"type":"Feature","geometry":{"type":"LineString","coordinates":[[-118.3165035146748,33.88655240107161],[-118.3165035146748,33.88655240107161]]},"properties":{"dataset":"route","status":"ACTIVE","tags":["los-angeles-ca-metro-targets}"],"address":"2169 W Redondo Beach Blvd","city":"Gardena","state":"CA","postalCode":"90247","name":"Target"}},{"type":"Feature","geometry":{"type":"LineString","coordinates":[[-118.44386619597739,34.062923445512716],[-118.44386619597739,34.062923445512716]]},"properties":{"dataset":"route","status":"ACTIVE","tags":["los-angeles-ca-metro-targets}"],"address":"10861 Weyburn Ave","city":"Los Angeles","state":"CA","postalCode":"90024","name":"Target"}},{"type":"Feature","geometry":{"type":"LineString","coordinates":[[-118.085754,34.1471],[-118.085754,34.1471]]},"properties":{"dataset":"route","status":"ACTIVE","tags":["los-angeles-ca-metro-targets}"],"address":"3121 E Colorado Blvd","city":"Pasadena","state":"CA","postalCode":"91107","name":"Target"}},{"type":"Feature","geometry":{"type":"LineString","coordinates":[[-118.34394,34.049394],[-118.34394,34.049394]]},"properties":{"dataset":"route","status":"ACTIVE","tags":["los-angeles-ca-metro-targets}"],"address":"1302 S La Brea Ave Ste A","city":"Los Angeles","state":"CA","postalCode":"90019","name":"Target"}},{"type":"Feature","geometry":{"type":"LineString","coordinates":[[-118.32106936368497,33.922424288956506],[-118.32106936368497,33.922424288956506]]},"properties":{"dataset":"route","status":"ACTIVE","tags":["los-angeles-ca-metro-targets}"],"address":"2700 W 120th St","city":"Hawthorne","state":"CA","postalCode":"90250","name":"Target"}},{"type":"Feature","geometry":{"type":"LineString","coordinates":[[-118.35717759333112,33.869069327301105],[-118.35717759333112,33.869069327301105]]},"properties":{"dataset":"route","status":"ACTIVE","tags":["los-angeles-ca-metro-targets}"],"address":"1601 Kingsdale Ave","city":"Redondo Beach","state":"CA","postalCode":"90278","name":"Target"}},{"type":"Feature","geometry":{"type":"LineString","coordinates":[[-118.37164,34.18816],[-118.37164,34.18816]]},"properties":{"dataset":"route","status":"ACTIVE","tags":["los-angeles-ca-metro-targets}"],"address":"11051 Victory Blvd","city":"North Hollywood","state":"CA","postalCode":"91606","name":"Target"}},{"type":"Feature","geometry":{"type":"LineString","coordinates":[[-118.15082838922434,34.017922639027645],[-118.15082838922434,34.017922639027645]]},"properties":{"dataset":"route","status":"ACTIVE","tags":["los-angeles-ca-metro-targets}"],"address":"5600 Whittier Blvd","city":"Commerce","state":"CA","postalCode":"90022","name":"Target"}},{"type":"Feature","geometry":{"type":"LineString","coordinates":[[-118.16777714125386,33.948234912197286],[-118.16777714125386,33.948234912197286]]},"properties":{"dataset":"route","status":"ACTIVE","tags":["los-angeles-ca-metro-targets}"],"address":"5700 Firestone Blvd","city":"South Gate","state":"CA","postalCode":"90280","name":"Target"}},{"type":"Feature","geometry":{"type":"LineString","coordinates":[[-118.34585982328746,33.82639227740634],[-118.34585982328746,33.82639227740634]]},"properties":{"dataset":"route","status":"ACTIVE","tags":["los-angeles-ca-metro-targets}"],"address":"3433 Sepulveda Blvd","city":"Torrance","state":"CA","postalCode":"90505","name":"Target"}},{"type":"Feature","geometry":{"type":"LineString","coordinates":[[-118.350709,33.901493],[-118.350709,33.901493]]},"properties":{"dataset":"route","status":"ACTIVE","tags":["los-angeles-ca-metro-targets}"],"address":"14310 Hawthorne Blvd","city":"Lawndale","state":"CA","postalCode":"90260","name":"Target"}},{"type":"Feature","geometry":{"type":"LineString","coordinates":[[-118.33295428522361,33.94811592038368],[-118.33295428522361,33.94811592038368]]},"properties":{"dataset":"route","status":"ACTIVE","tags":["los-angeles-ca-metro-targets}"],"address":"3471 W Century Blvd","city":"Inglewood","state":"CA","postalCode":"90303","name":"Target"}},{"type":"Feature","geometry":{"type":"LineString","coordinates":[[-118.26043642528906,33.8427534715334],[-118.26043642528906,33.8427534715334]]},"properties":{"dataset":"route","status":"ACTIVE","tags":["los-angeles-ca-metro-targets}"],"address":"20700 Avalon Blvd, Ste 750","city":"Carson","state":"CA","postalCode":"90746","name":"Target"}},{"type":"Feature","geometry":{"type":"LineString","coordinates":[[-118.4665046530088,34.17482008135356],[-118.4665046530088,34.17482008135356]]},"properties":{"dataset":"route","status":"ACTIVE","tags":["los-angeles-ca-metro-targets}"],"address":"5711 Sepulveda Blvd","city":"Van Nuys","state":"CA","postalCode":"91411","name":"Target"}}]}