{"type":"FeatureCollection","features":[{"type":"Feature","geometry":{"type":"LineString","coordinates":[[-73.989309,40.750245],[-73.989309,40.750245]]},"properties":{"dataset":"route","status":"ACTIVE","tags":["new-york-ny-metro-targets"],"address":"112 W 34th St","city":"New York","state":"NY","postalCode":"10120","name":"Target"}},{"type":"Feature","geometry":{"type":"LineString","coordinates":[[-73.982561,40.770114],[-73.982561,40.770114]]},"properties":{"dataset":"route","status":"ACTIVE","tags":["new-york-ny-metro-targets"],"address":"1863 Broadway","city":"New York","state":"NY","postalCode":"10023","name":"Target"}},{"type":"Feature","geometry":{"type":"LineString","coordinates":[[-74.0113094250647,40.71469071790318],[-74.0113094250647,40.71469071790318]]},"properties":{"dataset":"route","status":"ACTIVE","tags":["new-york-ny-metro-targets"],"address":"255 Greenwich St","city":"New York","state":"NY","postalCode":"10007","name":"Target"}},{"type":"Feature","geometry":{"type":"LineString","coordinates":[[-73.97670985793114,40.68429401866622],[-73.97670985793114,40.68429401866622]]},"properties":{"dataset":"route","status":"ACTIVE","tags":["new-york-ny-metro-targets"],"address":"139 Flatbush Ave","city":"Brooklyn","state":"NY","postalCode":"11217","name":"Target"}},{"type":"Feature","geometry":{"type":"LineString","coordinates":[[-73.9836538255136,40.69060069313813],[-73.9836538255136,40.69060069313813]]},"properties":{"dataset":"route","status":"ACTIVE","tags":["new-york-ny-metro-targets"],"address":"445 Albee Sq","city":"Brooklyn","state":"NY","postalCode":"11201","name":"Target"}},{"type":"Feature","geometry":{"type":"LineString","coordinates":[[-74.03567,40.73235],[-74.03567,40.73235]]},"properties":{"dataset":"route","status":"ACTIVE","tags":["new-york-ny-metro-targets"],"address":"100 14th St","city":"Jersey City","state":"NJ","postalCode":"07310","name":"Target"}},{"type":"Feature","geometry":{"type":"LineString","coordinates":[[-73.98011876674077,40.73030313000108],[-73.98011876674077,40.73030313000108]]},"properties":{"dataset":"route","status":"ACTIVE","tags":["new-york-ny-metro-targets"],"address":"500 E 14th St","city":"New York","state":"NY","postalCode":"10009","name":"Target"}},{"type":"Feature","geometry":{"type":"LineString","coordinates":[[-73.978092,40.741484],[-73.978092,40.741484]]},"properties":{"dataset":"route","status":"ACTIVE","tags":["new-york-ny-metro-targets"],"address":"512 2nd Ave","city":"New York","state":"NY","postalCode":"10016","name":"Target"}},{"type":"Feature","geometry":{"type":"LineString","coordinates":[[-73.994541,40.761085],[-73.994541,40.761085]]},"properties":{"dataset":"route","status":"ACTIVE","tags":["new-york-ny-metro-targets"],"address":"615 10th Av","city":"New York","state":"NY","postalCode":"10036","name":"Target"}},{"type":"Feature","geometry":{"type":"LineString","coordinates":[[-73.874913,40.735331],[-73.874913,40.735331]]},"properties":{"dataset":"route","status":"ACTIVE","tags":["new-york-ny-metro-targets"],"address":"8801 Queens Blvd","city":"Elmhurst","state":"NY","postalCode":"11373","name":"Target"}},{"type":"Feature","geometry":{"type":"LineString","coordinates":[[-73.9820983972756,40.8136455046194],[-73.9820983972756,40.8136455046194]]},"properties":{"dataset":"route","status":"ACTIVE","tags":["new-york-ny-metro-targets"],"address":"543 River Rd","city":"Edgewater","state":"NJ","postalCode":"07020","name":"Target"}},{"type":"Feature","geometry":{"type":"LineString","coordinates":[[-74.1353987700274,40.82486454225173],[-74.1353987700274,40.82486454225173]]},"properties":{"dataset":"route","status":"ACTIVE","tags":["new-york-ny-metro-targets"],"address":"30 Kingsland Rd","city":"Clifton","state":"NJ","postalCode":"07014","name":"Target"}},{"type":"Feature","geometry":{"type":"LineString","coordinates":[[-73.83462082168053,40.757678066192916],[-73.83462082168053,40.757678066192916]]},"properties":{"dataset":"route","status":"ACTIVE","tags":["new-york-ny-metro-targets"],"address":"4024 College Point Blvd Level F","city":"Flushing","state":"NY","postalCode":"11354","name":"Target"}},{"type":"Feature","geometry":{"type":"LineString","coordinates":[[-73.94671917085888,40.631564035200206],[-73.94671917085888,40.631564035200206]]},"properties":{"dataset":"route","status":"ACTIVE","tags":["new-york-ny-metro-targets"],"address":"1598 Flatbush Ave","city":"Brooklyn","state":"NY","postalCode":"11210","name":"Target"}},{"type":"Feature","geometry":{"type":"LineString","coordinates":[[-73.93135683128891,40.79528590433512],[-73.93135683128891,40.79528590433512]]},"properties":{"dataset":"route","status":"ACTIVE","tags":["new-york-ny-metro-targets"],"address":"517 E 117th St","city":"New York","state":"NY","postalCode":"10035","name":"Target"}},{"type":"Feature","geometry":{"type":"LineString","coordinates":[[-74.02142,40.801743],[-74.02142,40.801743]]},"properties":{"dataset":"route","status":"ACTIVE","tags":["new-york-ny-metro-targets"],"address":"7101 Tonnelle Ave","city":"North Bergen","state":"NJ","postalCode":"07047","name":"Target"}},{"type":"Feature","geometry":{"type":"LineString","coordinates":[[-74.06068287960059,40.915746566597235],[-74.06068287960059,40.915746566597235]]},"properties":{"dataset":"route","status":"ACTIVE","tags":["new-york-ny-metro-targets"],"address":"900 Bergen Town Ctr","city":"Paramus","state":"NJ","postalCode":"07652","name":"Target"}},{"type":"Feature","geometry":{"type":"LineString","coordinates":[[-73.83315621898345,40.78339073372374],[-73.83315621898345,40.78339073372374]]},"properties":{"dataset":"route","status":"ACTIVE","tags":["new-york-ny-metro-targets"],"address":"13505 20th Ave","city":"College Point","state":"NY","postalCode":"11356","name":"Target"}},{"type":"Feature","geometry":{"type":"LineString","coordinates":[[-73.9865096436204,40.716257106976364],[-73.9865096436204,40.716257106976364]]},"properties":{"dataset":"route","status":"ACTIVE","tags":["new-york-ny-metro-targets"],"address":"400 Grand St","city":"New York","state":"NY","postalCode":"10002","name":"Target"}},{"type":"Feature","geometry":{"type":"LineString","coordinates":[[-74.03892148778607,40.898615214304066],[-74.03892148778607,40.898615214304066]]},"properties":{"dataset":"route","status":"ACTIVE","tags":["new-york-ny-metro-targets"],"address":"630 Main St","city":"Hackensack","state":"NJ","postalCode":"07601","name":"Target"}},{"type":"Feature","geometry":{"type":"LineString","coordinates":[[-73.8696974115279,40.65263363563504],[-73.8696974115279,40.65263363563504]]},"properties":{"dataset":"route","status":"ACTIVE","tags":["new-york-ny-metro-targets"],"address":"519 Gateway Dr","city":"Brooklyn","state":"NY","postalCode":"11239","name":"Target"}},{"type":"Feature","geometry":{"type":"LineString","coordinates":[[-73.93039292307022,40.82343604513799],[-73.93039292307022,40.82343604513799]]},"properties":{"dataset":"route","status":"ACTIVE","tags":["new-york-ny-metro-targets"],"address":"700 Exterior St","city":"Bronx","state":"NY","postalCode":"10451","name":"Target"}},{"type":"Feature","geometry":{"type":"LineString","coordinates":[[-74.000977,40.593208],[-74.000977,40.593208]]},"properties":{"dataset":"route","status":"ACTIVE","tags":["new-york-ny-metro-targets"],"address":"8973-95 Bay Pkwy","city":"Brooklyn","state":"NY","postalCode":"11214","name":"Target"}},{"type":"Feature","geometry":{"type":"LineString","coordinates":[[-73.6000206887506,40.74189691335446],[-73.6000206887506,40.74189691335446]]},"properties":{"dataset":"route","status":"ACTIVE","tags":["new-york-ny-metro-targets"],"address":"999 Corporate Dr","city":"Westbury","state":"NY","postalCode":"11590","name":"Target"}},{"type":"Feature","geometry":{"type":"LineString","coordinates":[[-73.90772557370363,40.873437410462145],[-73.90772557370363,40.873437410462145]]},"properties":{"dataset":"route","status":"ACTIVE","tags":["new-york-ny-metro-targets"],"address":"40 W 225th St","city":"Bronx","state":"NY","postalCode":"10463","name":"Target"}},{"type":"Feature","geometry":{"type":"LineString","coordinates":[[-73.83781845972548,40.8241656560098],[-73.83781845972548,40.8241656560098]]},"properties":{"dataset":"route","status":"ACTIVE","tags":["new-york-ny-metro-targets"],"address":"815 Hutchinson River Pkwy","city":"Bronx","state":"NY","postalCode":"10465","name":"Target"}},{"type":"Feature","geometry":{"type":"LineString","coordinates":[[-73.98941925631327,40.61945422837669],[-73.98941925631327,40.61945422837669]]},"properties":{"dataset":"route","status":"ACTIVE","tags":["new-york-ny-metro-targets"],"address":"6401 18th Ave","city":"Brooklyn","state":"NY","postalCode":"11204","name":"Target"}},{"type":"Feature","geometry":{"type":"LineString","coordinates":[[-73.72011969169348,40.66423941168716],[-73.72011969169348,40.66423941168716]]},"properties":{"dataset":"route","status":"ACTIVE","tags":["new-york-ny-metro-targets"],"address":"500 W Sunrise Hwy","city":"Valley Stream","state":"NY","postalCode":"11581","name":"Target"}},{"type":"Feature","geometry":{"type":"LineString","coordinates":[[-74.28485450847968,40.71559838371119],[-74.28485450847968,40.71559838371119]]},"properties":{"dataset":"route","status":"ACTIVE","tags":["new-york-ny-metro-targets"],"address":"2235 Springfield Ave","city":"Vauxhall","state":"NJ","postalCode":"07088","name":"Target"}},{"type":"Feature","geometry":{"type":"LineString","coordinates":[[-73.96168,40.768359],[-73.96168,40.768359]]},"properties":{"dataset":"route","status":"ACTIVE","tags":["new-york-ny-metro-targets"],"address":"1201 3rd Ave","city":"New York","state":"NY","postalCode":"10021","name":"Target"}}]}