{"type":"FeatureCollection","features":[{"type":"Feature","geometry":{"type":"LineString","coordinates":[[-74.04234962462563,40.792635374976186],[-74.04234962462563,40.792635374976186]]},"properties":{"dataset":"route","status":"ACTIVE","tags":["new-york-ny-metro-walmarts"],"address":"400 Park Pl","city":"Secaucus","state":"NJ","postalCode":"07094","name":"Walmart Supercenter"}},{"type":"Feature","geometry":{"type":"LineString","coordinates":[[-74.06250338193419,40.862474182467494],[-74.06250338193419,40.862474182467494]]},"properties":{"dataset":"route","status":"ACTIVE","tags":["new-york-ny-metro-walmarts"],"address":"1 Teterboro Landing Drive","city":"Teterboro","state":"NJ","postalCode":"07608","name":"Walmart Supercenter"}},{"type":"Feature","geometry":{"type":"LineString","coordinates":[[-74.01354209,40.81342911],[-74.01354209,40.81342911]]},"properties":{"dataset":"route","status":"ACTIVE","tags":["new-york-ny-metro-walmarts"],"address":"2100 88th St","city":"North Bergen","state":"NJ","postalCode":"07047","name":"Walmart Supercenter"}},{"type":"Feature","geometry":{"type":"LineString","coordinates":[[-74.13562,40.749548],[-74.13562,40.749548]]},"properties":{"dataset":"route","status":"ACTIVE","tags":["new-york-ny-metro-walmarts"],"address":"150 Harrison Ave","city":"Kearny","state":"NJ","postalCode":"07032","name":"Walmart Supercenter"}},{"type":"Feature","geometry":{"type":"LineString","coordinates":[[-74.10687220174691,40.660013841451736],[-74.10687220174691,40.660013841451736]]},"properties":{"dataset":"route","status":"ACTIVE","tags":["new-york-ny-metro-walmarts"],"address":"500 Bayonne Crossing Way","city":"Bayonne","state":"NJ","postalCode":"07002","name":"Walmart Supercenter"}},{"type":"Feature","geometry":{"type":"LineString","coordinates":[[-74.09369480731347,40.89160570965401],[-74.09369480731347,40.89160570965401]]},"properties":{"dataset":"route","status":"ACTIVE","tags":["new-york-ny-metro-walmarts"],"address":"189 Us Highway 46","city":"Saddle Brook","state":"NJ","postalCode":"07663","name":"Walmart"}},{"type":"Feature","geometry":{"type":"LineString","coordinates":[[-73.6009955406189,40.74325780467203],[-73.6009955406189,40.74325780467203]]},"properties":{"dataset":"route","status":"ACTIVE","tags":["new-york-ny-metro-walmarts"],"address":"1220 Old Country Rd","city":"Westbury","state":"NY","postalCode":"11590","name":"Walmart"}},{"type":"Feature","geometry":{"type":"LineString","coordinates":[[-74.30034477047526,40.68733321553561],[-74.30034477047526,40.68733321553561]]},"properties":{"dataset":"route","status":"ACTIVE","tags":["new-york-ny-metro-walmarts"],"address":"900 Springfield Rd","city":"Union","state":"NJ","postalCode":"07083","name":"Walmart"}},{"type":"Feature","geometry":{"type":"LineString","coordinates":[[-74.10076134387127,40.866628785256104],[-74.10076134387127,40.866628785256104]]},"properties":{"dataset":"route","status":"ACTIVE","tags":["new-york-ny-metro-walmarts"],"address":"174 Passaic St","city":"Garfield","state":"NJ","postalCode":"07026","name":"Walmart Supercenter"}},{"type":"Feature","geometry":{"type":"LineString","coordinates":[[-73.72609616145313,40.66125056900678],[-73.72609616145313,40.66125056900678]]},"properties":{"dataset":"route","status":"ACTIVE","tags":["new-york-ny-metro-walmarts"],"address":"77 Green Acres Rd","city":"Valley Stream","state":"NY","postalCode":"11581","name":"Walmart Supercenter"}},{"type":"Feature","geometry":{"type":"LineString","coordinates":[[-74.29376528,40.53548799],[-74.29376528,40.53548799]]},"properties":{"dataset":"route","status":"ACTIVE","tags":["new-york-ny-metro-walmarts"],"address":"360 Us Highway 9 Route N","city":"Woodbridge","state":"NJ","postalCode":"07095","name":"Walmart"}},{"type":"Feature","geometry":{"type":"LineString","coordinates":[[-73.54403340410227,40.7266365620357],[-73.54403340410227,40.7266365620357]]},"properties":{"dataset":"route","status":"ACTIVE","tags":["new-york-ny-metro-walmarts"],"address":"2465 Hempstead Tpke","city":"East Meadow","state":"NY","postalCode":"11554","name":"Walmart"}},{"type":"Feature","geometry":{"type":"LineString","coordinates":[[-74.40394923649639,40.907510211312626],[-74.40394923649639,40.907510211312626]]},"properties":{"dataset":"route","status":"ACTIVE","tags":["new-york-ny-metro-walmarts"],"address":"300 Wootton St","city":"Boonton","state":"NJ","postalCode":"07005","name":"Walmart"}},{"type":"Feature","geometry":{"type":"LineString","coordinates":[[-74.31193218477517,40.99316114329795],[-74.31193218477517,40.99316114329795]]},"properties":{"dataset":"route","status":"ACTIVE","tags":["new-york-ny-metro-walmarts"],"address":"48 State Rt 23","city":"Riverdale","state":"NJ","postalCode":"07457","name":"Walmart"}},{"type":"Feature","geometry":{"type":"LineString","coordinates":[[-74.4576212675393,40.80984932073321],[-74.4576212675393,40.80984932073321]]},"properties":{"dataset":"route","status":"ACTIVE","tags":["new-york-ny-metro-walmarts"],"address":"235 Ridgedale Ave","city":"Cedar Knolls","state":"NJ","postalCode":"07927","name":"Walmart"}},{"type":"Feature","geometry":{"type":"LineString","coordinates":[[-74.37667815511723,40.53191886485612],[-74.37667815511723,40.53191886485612]]},"properties":{"dataset":"route","status":"ACTIVE","tags":["new-york-ny-metro-walmarts"],"address":"2220 State Route 27","city":"Edison","state":"NJ","postalCode":"08817","name":"Walmart"}},{"type":"Feature","geometry":{"type":"LineString","coordinates":[[-74.24831050694432,40.61276398772027],[-74.24831050694432,40.61276398772027]]},"properties":{"dataset":"route","status":"ACTIVE","tags":["new-york-ny-metro-walmarts"],"address":"1050 W Edgar Rd","city":"Linden","state":"NJ","postalCode":"07036","name":"Walmart Supercenter"}},{"type":"Feature","geometry":{"type":"LineString","coordinates":[[-74.44079514902113,40.554326805943646],[-74.44079514902113,40.554326805943646]]},"properties":{"dataset":"route","status":"ACTIVE","tags":["new-york-ny-metro-walmarts"],"address":"1303 Centennial Ave","city":"Piscataway","state":"NJ","postalCode":"08854","name":"Walmart"}},{"type":"Feature","geometry":{"type":"LineString","coordinates":[[-74.3010077716691,40.44822447667566],[-74.3010077716691,40.44822447667566]]},"properties":{"dataset":"route","status":"ACTIVE","tags":["new-york-ny-metro-walmarts"],"address":"1126 Us Highway 9","city":"Old Bridge","state":"NJ","postalCode":"08857","name":"Walmart"}},{"type":"Feature","geometry":{"type":"LineString","coordinates":[[-74.39903147320209,40.45879386309005],[-74.39903147320209,40.45879386309005]]},"properties":{"dataset":"route","status":"ACTIVE","tags":["new-york-ny-metro-walmarts"],"address":"290 State Route 18","city":"East Brunswick","state":"NJ","postalCode":"08816","name":"Walmart Supercenter"}},{"type":"Feature","geometry":{"type":"LineString","coordinates":[[-74.4248636751422,40.63809426527327],[-74.4248636751422,40.63809426527327]]},"properties":{"dataset":"route","status":"ACTIVE","tags":["new-york-ny-metro-walmarts"],"address":"1501 Us Highway 22","city":"Watchung","state":"NJ","postalCode":"07069","name":"Walmart"}},{"type":"Feature","geometry":{"type":"LineString","coordinates":[[-74.10724090089019,41.11301660431022],[-74.10724090089019,41.11301660431022]]},"properties":{"dataset":"route","status":"ACTIVE","tags":["new-york-ny-metro-walmarts"],"address":"250 Route 59","city":"Suffern","state":"NY","postalCode":"10901","name":"Walmart"}},{"type":"Feature","geometry":{"type":"LineString","coordinates":[[-74.254512,40.61842],[-74.254512,40.61842]]},"properties":{"dataset":"route","status":"ACTIVE","tags":["new-york-ny-metro-walmarts"],"city":"Linden","state":"NJ","postalCode":"07036","name":"Walmart Supercenter Linden"}},{"type":"Feature","geometry":{"type":"LineString","coordinates":[[-74.31891648164938,40.37393143043812],[-74.31891648164938,40.37393143043812]]},"properties":{"dataset":"route","status":"ACTIVE","tags":["new-york-ny-metro-walmarts"],"address":"2825 Highway Route 18","city":"Old Bridge","state":"NJ","postalCode":"08857","name":"Walmart Supercenter"}},{"type":"Feature","geometry":{"type":"LineString","coordinates":[[-73.57817632575627,40.695384132187954],[-73.57817632575627,40.695384132187954]]},"properties":{"dataset":"route","status":"ACTIVE","tags":["new-york-ny-metro-walmarts"],"address":"1123 Jerusalem Ave","city":"Uniondale","state":"NY","postalCode":"11553","name":"Walmart"}}]}