{"type":"FeatureCollection","features":[{"type":"Feature","geometry":{"type":"LineString","coordinates":[[-117.164894,32.829575],[-117.164894,32.829575]]},"properties":{"dataset":"route","status":"ACTIVE","tags":["san-diego-ca-metro-walmarts"],"address":"4840 Shawline St","city":"San Diego","state":"CA","postalCode":"92111","name":"Walmart"}},{"type":"Feature","geometry":{"type":"LineString","coordinates":[[-117.09901635174981,32.674631346254245],[-117.09901635174981,32.674631346254245]]},"properties":{"dataset":"route","status":"ACTIVE","tags":["san-diego-ca-metro-walmarts"],"address":"1200 Highland Ave","city":"National City","state":"CA","postalCode":"91950","name":"Walmart Supercenter"}},{"type":"Feature","geometry":{"type":"LineString","coordinates":[[-117.03545,32.58164],[-117.03545,32.58164]]},"properties":{"dataset":"route","status":"ACTIVE","tags":["san-diego-ca-metro-walmarts"],"address":"710 Dennery Road","city":"San Diego","state":"CA","postalCode":"92154","name":"Walmart"}},{"type":"Feature","geometry":{"type":"LineString","coordinates":[[-117.11637,32.805355],[-117.11637,32.805355]]},"properties":{"dataset":"route","status":"ACTIVE","tags":["san-diego-ca-metro-walmarts"],"address":"3382 Murphy Canyon Road","city":"San Diego","state":"CA","postalCode":"92123","name":"Walmart"}},{"type":"Feature","geometry":{"type":"LineString","coordinates":[[-117.08274480987866,32.60693665686558],[-117.08274480987866,32.60693665686558]]},"properties":{"dataset":"route","status":"ACTIVE","tags":["san-diego-ca-metro-walmarts"],"address":"1150 Broadway","city":"Chula Vista","state":"CA","postalCode":"91911","name":"Walmart"}},{"type":"Feature","geometry":{"type":"LineString","coordinates":[[-117.00938866191133,32.77750494335409],[-117.00938866191133,32.77750494335409]]},"properties":{"dataset":"route","status":"ACTIVE","tags":["san-diego-ca-metro-walmarts"],"address":"5500 Grossmont Center Dr","city":"La Mesa","state":"CA","postalCode":"91942","name":"Walmart"}},{"type":"Feature","geometry":{"type":"LineString","coordinates":[[-117.09441335744089,32.651628199014496],[-117.09441335744089,32.651628199014496]]},"properties":{"dataset":"route","status":"ACTIVE","tags":["san-diego-ca-metro-walmarts"],"address":"75 North Broadway","city":"Chula Vista","state":"CA","postalCode":"91910","name":"Walmart"}},{"type":"Feature","geometry":{"type":"LineString","coordinates":[[-117.1188630121908,32.52837320213109],[-117.1188630121908,32.52837320213109]]},"properties":{"dataset":"route","status":"ACTIVE","tags":["san-diego-ca-metro-walmarts"],"address":"Av. Parque MÃ©xico Norte No. 320","city":"Tijuana","state":"Baja California","postalCode":"22500","name":"Walmart Playas de Tijuana"}},{"type":"Feature","geometry":{"type":"LineString","coordinates":[[-117.02484417863486,32.63754410726918],[-117.02484417863486,32.63754410726918]]},"properties":{"dataset":"route","status":"ACTIVE","tags":["san-diego-ca-metro-walmarts"],"address":"875 E. H St.","city":"Chula Vista","state":"CA","postalCode":"91910","name":"Walmart Supercenter"}},{"type":"Feature","geometry":{"type":"LineString","coordinates":[[-116.96778774261475,32.63073741814897],[-116.96778774261475,32.63073741814897]]},"properties":{"dataset":"route","status":"ACTIVE","tags":["san-diego-ca-metro-walmarts"],"address":"1360 Eastlake Pkwy","city":"Chula Vista","state":"CA","postalCode":"91915","name":"Walmart Supercenter"}},{"type":"Feature","geometry":{"type":"LineString","coordinates":[[-117.05330623787376,32.741688552394365],[-117.05330623787376,32.741688552394365]]},"properties":{"dataset":"route","status":"ACTIVE","tags":["san-diego-ca-metro-walmarts"],"address":"3412 College Ave","city":"San Diego","state":"CA","postalCode":"92115","name":"Walmart Supercenter"}},{"type":"Feature","geometry":{"type":"LineString","coordinates":[[-117.00040523650208,32.47425407721456],[-117.00040523650208,32.47425407721456]]},"properties":{"dataset":"route","status":"ACTIVE","tags":["san-diego-ca-metro-walmarts"],"address":"Libramiento Oriente 10010","city":"Tijuana","state":"Baja California","postalCode":"22640","name":"Walmart"}},{"type":"Feature","geometry":{"type":"LineString","coordinates":[[-117.0892059803009,32.586886768858214],[-117.0892059803009,32.586886768858214]]},"properties":{"dataset":"route","status":"ACTIVE","tags":["san-diego-ca-metro-walmarts"],"address":"575 Saturn Blvd","city":"San Diego","state":"CA","postalCode":"92154","name":"Walmart"}},{"type":"Feature","geometry":{"type":"LineString","coordinates":[[-116.99000636049497,32.84242424145322],[-116.99000636049497,32.84242424145322]]},"properties":{"dataset":"route","status":"ACTIVE","tags":["san-diego-ca-metro-walmarts"],"address":"170 Town Center Parkway","city":"Santee","state":"CA","postalCode":"92071","name":"Walmart"}},{"type":"Feature","geometry":{"type":"LineString","coordinates":[[-116.96858084375725,32.8044612715252],[-116.96858084375725,32.8044612715252]]},"properties":{"dataset":"route","status":"ACTIVE","tags":["san-diego-ca-metro-walmarts"],"address":"605 Fletcher Pkwy","city":"El Cajon","state":"CA","postalCode":"92020","name":"Walmart"}},{"type":"Feature","geometry":{"type":"LineString","coordinates":[[-116.9344650292268,32.495584737280424],[-116.9344650292268,32.495584737280424]]},"properties":{"dataset":"route","status":"ACTIVE","tags":["san-diego-ca-metro-walmarts"],"address":"Macro Plaza Insurgentes","city":"Tijuana","state":"Baja California","postalCode":"22226","name":"Walmart"}},{"type":"Feature","geometry":{"type":"LineString","coordinates":[[-116.9457874613347,32.487560464306156],[-116.9457874613347,32.487560464306156]]},"properties":{"dataset":"route","status":"ACTIVE","tags":["san-diego-ca-metro-walmarts"],"address":"Blvd. Gustavo Díaz Ordaz  #15634 Col. La Joya","city":"Tijuana","state":"Baja California","postalCode":"22115","name":"Walmart"}},{"type":"Feature","geometry":{"type":"LineString","coordinates":[[-117.03844281290097,32.95907104446527],[-117.03844281290097,32.95907104446527]]},"properties":{"dataset":"route","status":"ACTIVE","tags":["san-diego-ca-metro-walmarts"],"address":"13425 Community Road","city":"Poway","state":"CA","postalCode":"92064","name":"Walmart Supercenter"}},{"type":"Feature","geometry":{"type":"LineString","coordinates":[[-117.0591750465315,32.37842377003324],[-117.0591750465315,32.37842377003324]]},"properties":{"dataset":"route","status":"ACTIVE","tags":["san-diego-ca-metro-walmarts"],"address":"Carretera Libre Tijuana Ensenada NO. 300","city":"Rosarito","state":"Baja California","postalCode":"22710","name":"Walmart"}},{"type":"Feature","geometry":{"type":"LineString","coordinates":[[-116.99286308476701,32.50874587762636],[-116.99286308476701,32.50874587762636]]},"properties":{"dataset":"route","status":"ACTIVE","tags":["san-diego-ca-metro-walmarts"],"address":"Tijuana Hipodromo","city":"Tijuana","state":"Baja California","postalCode":"22024","name":"Walmart"}},{"type":"Feature","geometry":{"type":"LineString","coordinates":[[-116.90156095177646,32.82291815991633],[-116.90156095177646,32.82291815991633]]},"properties":{"dataset":"route","status":"ACTIVE","tags":["san-diego-ca-metro-walmarts"],"address":"13487 Camino Canada","city":"El Cajon","state":"CA","postalCode":"92021","name":"Walmart Supercenter"}},{"type":"Feature","geometry":{"type":"LineString","coordinates":[[-116.83992525469411,32.50871587708012],[-116.83992525469411,32.50871587708012]]},"properties":{"dataset":"route","status":"ACTIVE","tags":["san-diego-ca-metro-walmarts"],"address":"Corredor Tijuana-Rosarito 2000 819","city":"Tijuana","state":"Baja California","postalCode":"22235","name":"Walmart"}},{"type":"Feature","geometry":{"type":"LineString","coordinates":[[-116.86197797989749,32.49208342414868],[-116.86197797989749,32.49208342414868]]},"properties":{"dataset":"route","status":"ACTIVE","tags":["san-diego-ca-metro-walmarts"],"address":"Plaza Paseo 2000","city":"Tijuana","state":"Baja California","name":"Walmart"}},{"type":"Feature","geometry":{"type":"LineString","coordinates":[[-117.12288916110992,33.13533213978926],[-117.12288916110992,33.13533213978926]]},"properties":{"dataset":"route","status":"ACTIVE","tags":["san-diego-ca-metro-walmarts"],"address":"732 Center Dr","city":"San Marcos","state":"CA","postalCode":"92069","name":"Walmart"}},{"type":"Feature","geometry":{"type":"LineString","coordinates":[[-117.26581200103645,33.0690687476308],[-117.26581200103645,33.0690687476308]]},"properties":{"dataset":"route","status":"ACTIVE","tags":["san-diego-ca-metro-walmarts"],"address":"1550 Leucadia Blvd","city":"Encinitas","state":"CA","postalCode":"92024","name":"Walmart Supercenter"}},{"type":"Feature","geometry":{"type":"LineString","coordinates":[[-117.06281557430677,33.1298731796668],[-117.06281557430677,33.1298731796668]]},"properties":{"dataset":"route","status":"ACTIVE","tags":["san-diego-ca-metro-walmarts"],"address":"1330 East Grand Avenue","city":"Escondido","state":"CA","postalCode":"92027","name":"Walmart"}},{"type":"Feature","geometry":{"type":"LineString","coordinates":[[-117.00701,32.479993],[-117.00701,32.479993]]},"properties":{"dataset":"route","status":"ACTIVE","tags":["san-diego-ca-metro-walmarts"],"city":"Tijuana","state":"Baja California","name":"Walmart Marquez de leon"}}]}