{"type":"FeatureCollection","features":[{"type":"Feature","geometry":{"type":"Point","coordinates":[-117.1506471235297,32.767771177347356],"properties":{"address":"1288 Camino del Rio N","city":"San Diego","state":"CA","postalCode":"92108","name":"Target"}}},{"type":"Feature","geometry":{"type":"Point","coordinates":[-117.12904,32.72686],"properties":{"address":"3030 Grape St","city":"San Diego","state":"CA","postalCode":"92102","name":"Target"}}},{"type":"Feature","geometry":{"type":"Point","coordinates":[-117.20951015135078,32.75158934239277],"properties":{"address":"3245 Sports Arena Blvd","city":"San Diego","state":"CA","postalCode":"92110","name":"Target"}}},{"type":"Feature","geometry":{"type":"Point","coordinates":[-117.1784939,32.8221521],"properties":{"address":"5680 Balboa Ave","city":"San Diego","state":"CA","postalCode":"92111","name":"Target"}}},{"type":"Feature","geometry":{"type":"Point","coordinates":[-117.06516371921292,32.65433871039895],"properties":{"address":"3060 Plaza Bonita Rd","city":"National City","state":"CA","postalCode":"91950","name":"Target"}}},{"type":"Feature","geometry":{"type":"Point","coordinates":[-117.151024,32.816364],"properties":{"address":"8001 Othello Ave","city":"San Diego","state":"CA","postalCode":"92111","name":"Target"}}},{"type":"Feature","geometry":{"type":"Point","coordinates":[-117.14632926469044,32.91059026218971],"properties":{"address":"8251 Mira Mesa Blvd","city":"San Diego","state":"CA","postalCode":"92126","name":"Target"}}},{"type":"Feature","geometry":{"type":"Point","coordinates":[-117.24844,32.745381],"properties":{"address":"4864 Newport Ave","city":"San Diego","state":"CA","postalCode":"92107","name":"Target"}}},{"type":"Feature","geometry":{"type":"Point","coordinates":[-116.98236018419266,32.842425747430134],"properties":{"address":"9846 Mission Gorge Rd","city":"Santee","state":"CA","postalCode":"92071","name":"Target"}}},{"type":"Feature","geometry":{"type":"Point","coordinates":[-116.9686999,32.6509609],"properties":{"address":"910 Eastlake Pkwy","city":"Chula Vista","state":"CA","postalCode":"91914","name":"Target"}}},{"type":"Feature","geometry":{"type":"Point","coordinates":[-117.01254838013513,32.779261394169545],"properties":{"address":"5500 Grossmont Ctr Dr","city":"La Mesa","state":"CA","postalCode":"91942","name":"Target"}}},{"type":"Feature","geometry":{"type":"Point","coordinates":[-117.05544769763947,32.74093784301715],"properties":{"address":"3424 College Ave","city":"San Diego","state":"CA","postalCode":"92115","name":"Target"}}},{"type":"Feature","geometry":{"type":"Point","coordinates":[-117.08072588393543,32.60457555458957],"properties":{"address":"1240 Broadway","city":"Chula Vista","state":"CA","postalCode":"91911","name":"Target"}}},{"type":"Feature","geometry":{"type":"Point","coordinates":[-117.0606264427304,32.98064701105914],"properties":{"address":"14823 Pomerado Rd","city":"Poway","state":"CA","postalCode":"92064","name":"Target"}}},{"type":"Feature","geometry":{"type":"Point","coordinates":[-117.128914,32.748264],"properties":{"address":"3029 University Ave","city":"San Diego","state":"CA","postalCode":"92104","name":"Target"}}},{"type":"Feature","geometry":{"type":"Point","coordinates":[-117.15020751953125,32.76796340942383],"properties":{"address":"1288 Camino del Rio N","city":"San Diego","state":"CA","postalCode":"92108","name":"Target Clinic care provided by Kaiser Permanente"}}},{"type":"Feature","geometry":{"type":"Point","coordinates":[-116.93847656250001,32.73814026995746],"properties":{"address":"2911 Jamacha Rd","city":"El Cajon","state":"CA","postalCode":"92019","name":"Target"}}},{"type":"Feature","geometry":{"type":"Point","coordinates":[-117.15075,32.76825],"properties":{"city":"San Diego","state":"CA","postalCode":"92108","name":"Target Cafe"}}},{"type":"Feature","geometry":{"type":"Point","coordinates":[-116.959,32.809273],"properties":{"address":"250 Broadway","city":"El Cajon","state":"CA","postalCode":"92021","name":"Target"}}},{"type":"Feature","geometry":{"type":"Point","coordinates":[-117.150408,32.76794],"properties":{"city":"San Diego","state":"CA","name":"Target Clinic by Kaiser Permanente"}}},{"type":"Feature","geometry":{"type":"Point","coordinates":[-117.080795,32.60456],"properties":{"address":"1240 Broadway","city":"Chula Vista","state":"CA","postalCode":"91911","name":"Target Clinic care provided by Kaiser Permanente"}}},{"type":"Feature","geometry":{"type":"Point","coordinates":[-117.17874376907957,32.82171898836109],"properties":{"city":"San Diego","state":"CA","name":"Target Pharmacy"}}},{"type":"Feature","geometry":{"type":"Point","coordinates":[-117.26523701970194,33.06322800718357],"properties":{"address":"1010 N El Camino Real","city":"Encinitas","state":"CA","postalCode":"92024","name":"Target"}}},{"type":"Feature","geometry":{"type":"Point","coordinates":[-117.0620771,32.6427306],"properties":{"address":"135 Pepper Tree Road","city":"Chula Vista","state":"CA","postalCode":"91910","name":"On Target Design and Manufacture"}}},{"type":"Feature","geometry":{"type":"Point","coordinates":[-117.010933,32.713365],"properties":{"address":"935 Sweetwater Rd Ste 101","city":"Spring Valley","state":"CA","postalCode":"91977","name":"Target"}}},{"type":"Feature","geometry":{"type":"Point","coordinates":[-117.23736365685362,32.80035872565902],"properties":{"address":"Highland Ave","city":"National City","state":"CA","postalCode":"92109","name":"Target"}}},{"type":"Feature","geometry":{"type":"Point","coordinates":[-117.0994952638726,33.11320700007452],"properties":{"address":"1280 Auto Park Way","city":"Escondido","state":"CA","postalCode":"92029","name":"Target"}}},{"type":"Feature","geometry":{"type":"Point","coordinates":[-117.2095024,32.7517057],"properties":{"address":"3245 Sports Arena Blvd","city":"San Diego","state":"CA","postalCode":"92110","name":"Target Optical"}}},{"type":"Feature","geometry":{"type":"Point","coordinates":[-116.98248291015625,32.84196853637695],"properties":{"address":"9846 Mission Gorge Rd","city":"Santee","state":"CA","postalCode":"92071","name":"Target Clinic care provided by Kaiser Permanente"}}},{"type":"Feature","geometry":{"type":"Point","coordinates":[-117.1504586,32.76786],"properties":{"address":"1288 Camino del Rio N","city":"San Diego","state":"CA","postalCode":"92108","name":"CVS Pharmacy at Target"}}}]}