{"type":"FeatureCollection","features":[{"type":"Feature","geometry":{"type":"LineString","coordinates":[[-122.4040854748682,37.78455453972355],[-122.4040854748682,37.78455453972355]]},"properties":{"dataset":"route","status":"ACTIVE","tags":["san-francisco-ca-metro-targets"],"address":"789 Mission St","city":"San Francisco","state":"CA","postalCode":"94103","name":"Target"}},{"type":"Feature","geometry":{"type":"LineString","coordinates":[[-122.44680208992513,37.78186832392801],[-122.44680208992513,37.78186832392801]]},"properties":{"dataset":"route","status":"ACTIVE","tags":["san-francisco-ca-metro-targets"],"address":"2675 Geary Blvd","city":"San Francisco","state":"CA","postalCode":"94118","name":"Target"}},{"type":"Feature","geometry":{"type":"LineString","coordinates":[[-122.416046,37.770058],[-122.416046,37.770058]]},"properties":{"dataset":"route","status":"ACTIVE","tags":["san-francisco-ca-metro-targets"],"address":"1690 Folsom St","city":"San Francisco","state":"CA","postalCode":"94103","name":"Target"}},{"type":"Feature","geometry":{"type":"LineString","coordinates":[[-122.40086,37.79107],[-122.40086,37.79107]]},"properties":{"dataset":"route","status":"ACTIVE","tags":["san-francisco-ca-metro-targets"],"address":"225 Bush St","city":"San Francisco","state":"CA","postalCode":"94104","name":"Target"}},{"type":"Feature","geometry":{"type":"LineString","coordinates":[[-122.4767949289698,37.726566974748366],[-122.4767949289698,37.726566974748366]]},"properties":{"dataset":"route","status":"ACTIVE","tags":["san-francisco-ca-metro-targets"],"address":"233 Winston Dr","city":"San Francisco","state":"CA","postalCode":"94132","name":"Target"}},{"type":"Feature","geometry":{"type":"LineString","coordinates":[[-122.470183968544,37.6706372505802],[-122.470183968544,37.6706372505802]]},"properties":{"dataset":"route","status":"ACTIVE","tags":["san-francisco-ca-metro-targets"],"address":"133 Serramonte Ctr","city":"Daly City","state":"CA","postalCode":"94015","name":"Target"}},{"type":"Feature","geometry":{"type":"LineString","coordinates":[[-122.4642387,37.6738414],[-122.4642387,37.6738414]]},"properties":{"dataset":"route","status":"ACTIVE","tags":["san-francisco-ca-metro-targets"],"address":"5001 Junipero Serra Blvd","city":"Colma","state":"CA","postalCode":"94014","name":"Target"}},{"type":"Feature","geometry":{"type":"LineString","coordinates":[[-122.28339902170933,37.55899620667942],[-122.28339902170933,37.55899620667942]]},"properties":{"dataset":"route","status":"ACTIVE","tags":["san-francisco-ca-metro-targets"],"address":"2220 Bridgepointe Pkwy","city":"San Mateo","state":"CA","postalCode":"94404","name":"Target"}},{"type":"Feature","geometry":{"type":"LineString","coordinates":[[-122.28988441450258,37.828414750262674],[-122.28988441450258,37.828414750262674]]},"properties":{"dataset":"route","status":"ACTIVE","tags":["san-francisco-ca-metro-targets"],"address":"1555 40th St","city":"Emeryville","state":"CA","postalCode":"94608","name":"Target"}},{"type":"Feature","geometry":{"type":"LineString","coordinates":[[-122.41686701774597,37.63661367282738],[-122.41686701774597,37.63661367282738]]},"properties":{"dataset":"route","status":"ACTIVE","tags":["san-francisco-ca-metro-targets"],"address":"1150 El Camino Real","city":"San Bruno","state":"CA","postalCode":"94066","name":"Target"}},{"type":"Feature","geometry":{"type":"LineString","coordinates":[[-122.3066769,37.8827713],[-122.3066769,37.8827713]]},"properties":{"dataset":"route","status":"ACTIVE","tags":["san-francisco-ca-metro-targets"],"address":"1057 Eastshore Hwy","city":"Albany","state":"CA","postalCode":"94710","name":"Target"}},{"type":"Feature","geometry":{"type":"LineString","coordinates":[[-122.06448314363938,37.90494366253669],[-122.06448314363938,37.90494366253669]]},"properties":{"dataset":"route","status":"ACTIVE","tags":["san-francisco-ca-metro-targets"],"address":"1871 N Main St","city":"Walnut Creek","state":"CA","postalCode":"94596","name":"Target"}},{"type":"Feature","geometry":{"type":"LineString","coordinates":[[-122.1208101511,37.666267849659],[-122.1208101511,37.666267849659]]},"properties":{"dataset":"route","status":"ACTIVE","tags":["san-francisco-ca-metro-targets"],"address":"19661 Hesperian Blvd","city":"Hayward","state":"CA","postalCode":"94541","name":"Target"}},{"type":"Feature","geometry":{"type":"LineString","coordinates":[[-122.49058649096541,37.955214986894305],[-122.49058649096541,37.955214986894305]]},"properties":{"dataset":"route","status":"ACTIVE","tags":["san-francisco-ca-metro-targets"],"address":"125 Shoreline Pkwy","city":"San Rafael","state":"CA","postalCode":"94901","name":"Target"}},{"type":"Feature","geometry":{"type":"LineString","coordinates":[[-122.26781486755723,37.869602281952496],[-122.26781486755723,37.869602281952496]]},"properties":{"dataset":"route","status":"ACTIVE","tags":["san-francisco-ca-metro-targets"],"address":"2187 Shattuck Ave","city":"Berkeley","state":"CA","postalCode":"94704","name":"Target"}},{"type":"Feature","geometry":{"type":"LineString","coordinates":[[-122.32822114838957,37.93201450022087],[-122.32822114838957,37.93201450022087]]},"properties":{"dataset":"route","status":"ACTIVE","tags":["san-francisco-ca-metro-targets"],"address":"4500 Macdonald Ave","city":"Richmond","state":"CA","postalCode":"94805","name":"Target"}},{"type":"Feature","geometry":{"type":"LineString","coordinates":[[-122.12699398111121,37.6996748269991],[-122.12699398111121,37.6996748269991]]},"properties":{"dataset":"route","status":"ACTIVE","tags":["san-francisco-ca-metro-targets"],"address":"15555 E 14th St Ste 400","city":"San Leandro","state":"CA","postalCode":"94578","name":"Target"}},{"type":"Feature","geometry":{"type":"LineString","coordinates":[[-122.21756139933655,37.47526887590656],[-122.21756139933655,37.47526887590656]]},"properties":{"dataset":"route","status":"ACTIVE","tags":["san-francisco-ca-metro-targets"],"address":"2485 El Camino Real","city":"Redwood City","state":"CA","postalCode":"94063","name":"Target"}},{"type":"Feature","geometry":{"type":"LineString","coordinates":[[-122.30967129453705,37.987558255112006],[-122.30967129453705,37.987558255112006]]},"properties":{"dataset":"route","status":"ACTIVE","tags":["san-francisco-ca-metro-targets"],"address":"1400 Fitzgerald Dr","city":"Pinole","state":"CA","postalCode":"94564","name":"Target"}},{"type":"Feature","geometry":{"type":"LineString","coordinates":[[-121.96378031995927,37.762213797033766],[-121.96378031995927,37.762213797033766]]},"properties":{"dataset":"route","status":"ACTIVE","tags":["san-francisco-ca-metro-targets"],"address":"2610 Bishop Dr","city":"San Ramon","state":"CA","postalCode":"94583","name":"Target"}},{"type":"Feature","geometry":{"type":"LineString","coordinates":[[-122.27949500083922,37.788751207176894],[-122.27949500083922,37.788751207176894]]},"properties":{"dataset":"route","status":"ACTIVE","tags":["san-francisco-ca-metro-targets"],"address":"2700 5th St","city":"Alameda","state":"CA","postalCode":"94501","name":"Target"}},{"type":"Feature","geometry":{"type":"LineString","coordinates":[[-122.48288,37.70032],[-122.48288,37.70032]]},"properties":{"dataset":"route","status":"ACTIVE","tags":["san-francisco-ca-metro-targets"],"address":"100 Westlake Ctr","city":"Daly City","state":"CA","postalCode":"94015","name":"Target"}},{"type":"Feature","geometry":{"type":"LineString","coordinates":[[-121.93133347534099,37.70654816174644],[-121.93133347534099,37.70654816174644]]},"properties":{"dataset":"route","status":"ACTIVE","tags":["san-francisco-ca-metro-targets"],"address":"7200 Amador Plaza Rd","city":"Dublin","state":"CA","postalCode":"94568","name":"Target"}},{"type":"Feature","geometry":{"type":"LineString","coordinates":[[-122.06685550619079,37.97723793799742],[-122.06685550619079,37.97723793799742]]},"properties":{"dataset":"route","status":"ACTIVE","tags":["san-francisco-ca-metro-targets"],"address":"560 Contra Costa Blvd","city":"Pleasant Hill","state":"CA","postalCode":"94523","name":"Target"}},{"type":"Feature","geometry":{"type":"LineString","coordinates":[[-121.85314980607954,37.70335115005446],[-121.85314980607954,37.70335115005446]]},"properties":{"dataset":"route","status":"ACTIVE","tags":["san-francisco-ca-metro-targets"],"address":"2800 Dublin Blvd","city":"Dublin","state":"CA","postalCode":"94568","name":"Target"}},{"type":"Feature","geometry":{"type":"LineString","coordinates":[[-122.26406,37.815643],[-122.26406,37.815643]]},"properties":{"dataset":"route","status":"ACTIVE","tags":["san-francisco-ca-metro-targets"],"address":"2650 Broadway","city":"Oakland","state":"CA","postalCode":"94612","name":"Target"}},{"type":"Feature","geometry":{"type":"LineString","coordinates":[[-122.5109497076704,37.87377883110619],[-122.5109497076704,37.87377883110619]]},"properties":{"dataset":"route","status":"ACTIVE","tags":["san-francisco-ca-metro-targets"],"address":"180 Donahue St","city":"Sausalito","state":"CA","postalCode":"94965","name":"Target"}},{"type":"Feature","geometry":{"type":"LineString","coordinates":[[-122.55303263648969,38.08988925396842],[-122.55303263648969,38.08988925396842]]},"properties":{"dataset":"route","status":"ACTIVE","tags":["san-francisco-ca-metro-targets"],"address":"200 Vintage Way","city":"Novato","state":"CA","postalCode":"94945","name":"Target"}},{"type":"Feature","geometry":{"type":"LineString","coordinates":[[-122.46143608503341,37.72511701118615],[-122.46143608503341,37.72511701118615]]},"properties":{"dataset":"route","status":"ACTIVE","tags":["san-francisco-ca-metro-targets"],"address":"1830 Ocean Ave","city":"San Francisco","state":"CA","postalCode":"94112","name":"Target"}},{"type":"Feature","geometry":{"type":"LineString","coordinates":[[-122.2839479513902,37.869851863157685],[-122.2839479513902,37.869851863157685]]},"properties":{"dataset":"route","status":"ACTIVE","tags":["san-francisco-ca-metro-targets"],"address":"1414 University Ave","city":"Berkeley","state":"CA","postalCode":"94702","name":"Target"}}]}