{"type":"FeatureCollection","features":[{"type":"Feature","geometry":{"type":"LineString","coordinates":[[-122.17806717798038,37.71500275706939],[-122.17806717798038,37.71500275706939]]},"properties":{"dataset":"route","status":"ACTIVE","tags":["san-francisco-ca-metro-walmarts"],"address":"1919 Davis St","city":"San Leandro","state":"CA","postalCode":"94577","name":"Walmart"}},{"type":"Feature","geometry":{"type":"LineString","coordinates":[[-122.3283503022237,37.97953759018613],[-122.3283503022237,37.97953759018613]]},"properties":{"dataset":"route","status":"ACTIVE","tags":["san-francisco-ca-metro-walmarts"],"address":"1400 Hilltop Mall Rd","city":"Richmond","state":"CA","postalCode":"94806","name":"Walmart"}},{"type":"Feature","geometry":{"type":"LineString","coordinates":[[-122.13126499595108,37.68801326782751],[-122.13126499595108,37.68801326782751]]},"properties":{"dataset":"route","status":"ACTIVE","tags":["san-francisco-ca-metro-walmarts"],"address":"15555 Hesperian Blvd","city":"San Leandro","state":"CA","postalCode":"94579","name":"Walmart"}},{"type":"Feature","geometry":{"type":"LineString","coordinates":[[-122.06739603615856,37.60432630122944],[-122.06739603615856,37.60432630122944]]},"properties":{"dataset":"route","status":"ACTIVE","tags":["san-francisco-ca-metro-walmarts"],"address":"30600 Dyer St","city":"Union City","state":"CA","postalCode":"94587","name":"Walmart"}},{"type":"Feature","geometry":{"type":"LineString","coordinates":[[-122.10932704642103,37.99663833126352],[-122.10932704642103,37.99663833126352]]},"properties":{"dataset":"route","status":"ACTIVE","tags":["san-francisco-ca-metro-walmarts"],"address":"1021 Arnold Dr","city":"Martinez","state":"CA","postalCode":"94553","name":"Walmart"}},{"type":"Feature","geometry":{"type":"LineString","coordinates":[[-121.88722952126749,37.697951623793244],[-121.88722952126749,37.697951623793244]]},"properties":{"dataset":"route","status":"ACTIVE","tags":["san-francisco-ca-metro-walmarts"],"address":"4501 Rosewood Dr","city":"Pleasanton","state":"CA","postalCode":"94588","name":"Walmart"}}]}