{"type":"FeatureCollection","features":[{"type":"Feature","geometry":{"type":"LineString","coordinates":[[-122.33859,47.60856],[-122.33859,47.60856]]},"properties":{"dataset":"route","status":"ACTIVE","tags":["seattle-wa-metro-targets}"],"address":"1401 2nd Ave","city":"Seattle","state":"WA","postalCode":"98101","name":"Target"}},{"type":"Feature","geometry":{"type":"LineString","coordinates":[[-122.32467427961184,47.70913140722577],[-122.32467427961184,47.70913140722577]]},"properties":{"dataset":"route","status":"ACTIVE","tags":["seattle-wa-metro-targets}"],"address":"302 NE Northgate Way","city":"Seattle","state":"WA","postalCode":"98125","name":"Target"}},{"type":"Feature","geometry":{"type":"LineString","coordinates":[[-122.36868927517237,47.522043471793786],[-122.36868927517237,47.522043471793786]]},"properties":{"dataset":"route","status":"ACTIVE","tags":["seattle-wa-metro-targets}"],"address":"2800 SW Barton St","city":"Seattle","state":"WA","postalCode":"98126","name":"Target"}},{"type":"Feature","geometry":{"type":"LineString","coordinates":[[-122.17299190452785,47.574091322769476],[-122.17299190452785,47.574091322769476]]},"properties":{"dataset":"route","status":"ACTIVE","tags":["seattle-wa-metro-targets}"],"address":"4053 Factoria Square Mall SE","city":"Bellevue","state":"WA","postalCode":"98006","name":"Target"}},{"type":"Feature","geometry":{"type":"LineString","coordinates":[[-122.20045502008712,47.4966527373479],[-122.20045502008712,47.4966527373479]]},"properties":{"dataset":"route","status":"ACTIVE","tags":["seattle-wa-metro-targets}"],"address":"1215 N Landing Way","city":"Renton","state":"WA","postalCode":"98057","name":"Target"}},{"type":"Feature","geometry":{"type":"LineString","coordinates":[[-122.37578300000001,47.668959],[-122.37578300000001,47.668959]]},"properties":{"dataset":"route","status":"ACTIVE","tags":["seattle-wa-metro-targets}"],"address":"1448 NW Market St","city":"Seattle","state":"WA","postalCode":"98107","name":"Target"}},{"type":"Feature","geometry":{"type":"LineString","coordinates":[[-122.25826592002092,47.4549754032197],[-122.25826592002092,47.4549754032197]]},"properties":{"dataset":"route","status":"ACTIVE","tags":["seattle-wa-metro-targets}"],"address":"301 Strander Blvd","city":"Tukwila","state":"WA","postalCode":"98188","name":"Target"}},{"type":"Feature","geometry":{"type":"LineString","coordinates":[[-122.10383893920682,47.672634754015796],[-122.10383893920682,47.672634754015796]]},"properties":{"dataset":"route","status":"ACTIVE","tags":["seattle-wa-metro-targets}"],"address":"17700 NE 76th St","city":"Redmond","state":"WA","postalCode":"98052","name":"Target"}},{"type":"Feature","geometry":{"type":"LineString","coordinates":[[-122.05075435168034,47.54218775172781],[-122.05075435168034,47.54218775172781]]},"properties":{"dataset":"route","status":"ACTIVE","tags":["seattle-wa-metro-targets}"],"address":"755 NW Gilman Blvd","city":"Issaquah","state":"WA","postalCode":"98027","name":"Target"}},{"type":"Feature","geometry":{"type":"LineString","coordinates":[[-122.313445,47.662382],[-122.313445,47.662382]]},"properties":{"dataset":"route","status":"ACTIVE","tags":["seattle-wa-metro-targets}"],"address":"4535 University Way NE","city":"Seattle","state":"WA","postalCode":"98105","name":"Target"}},{"type":"Feature","geometry":{"type":"LineString","coordinates":[[-122.18499,47.61251],[-122.18499,47.61251]]},"properties":{"dataset":"route","status":"ACTIVE","tags":["seattle-wa-metro-targets}"],"address":"272 116th Ave NE","city":"Bellevue","state":"WA","postalCode":"98004","name":"Target Bellevue"}},{"type":"Feature","geometry":{"type":"LineString","coordinates":[[-122.15427508477582,47.75838911773189],[-122.15427508477582,47.75838911773189]]},"properties":{"dataset":"route","status":"ACTIVE","tags":["seattle-wa-metro-targets}"],"address":"13950 NE 178th Pl","city":"Woodinville","state":"WA","postalCode":"98072","name":"Target"}},{"type":"Feature","geometry":{"type":"LineString","coordinates":[[-122.26646924919554,47.83279629441876],[-122.26646924919554,47.83279629441876]]},"properties":{"dataset":"route","status":"ACTIVE","tags":["seattle-wa-metro-targets}"],"address":"18305 Alderwood Mall Pkwy","city":"Lynnwood","state":"WA","postalCode":"98037","name":"Target"}},{"type":"Feature","geometry":{"type":"LineString","coordinates":[[-122.20303340569771,47.36626993476572],[-122.20303340569771,47.36626993476572]]},"properties":{"dataset":"route","status":"ACTIVE","tags":["seattle-wa-metro-targets}"],"address":"26301 104th Ave SE","city":"Kent","state":"WA","postalCode":"98030","name":"Target"}},{"type":"Feature","geometry":{"type":"LineString","coordinates":[[-122.69419189422052,47.65796729239782],[-122.69419189422052,47.65796729239782]]},"properties":{"dataset":"route","status":"ACTIVE","tags":["seattle-wa-metro-targets}"],"address":"3201 NW Randall Way","city":"Silverdale","state":"WA","postalCode":"98383","name":"Target"}},{"type":"Feature","geometry":{"type":"LineString","coordinates":[[-122.607339,47.360864],[-122.607339,47.360864]]},"properties":{"dataset":"route","status":"ACTIVE","tags":["seattle-wa-metro-targets}"],"address":"11400 51st Ave NW","city":"Gig Harbor","state":"WA","postalCode":"98332","name":"Target"}},{"type":"Feature","geometry":{"type":"LineString","coordinates":[[-122.305539,47.313592],[-122.305539,47.313592]]},"properties":{"dataset":"route","status":"ACTIVE","tags":["seattle-wa-metro-targets}"],"address":"2201 S Commons","city":"Federal Way","state":"WA","postalCode":"98003","name":"Target"}},{"type":"Feature","geometry":{"type":"LineString","coordinates":[[-122.22690798374333,47.910085324495256],[-122.22690798374333,47.910085324495256]]},"properties":{"dataset":"route","status":"ACTIVE","tags":["seattle-wa-metro-targets}"],"address":"405 SE Everett Mall Way","city":"Everett","state":"WA","postalCode":"98208","name":"Target"}},{"type":"Feature","geometry":{"type":"LineString","coordinates":[[-122.3353315015859,47.623890836679784],[-122.3353315015859,47.623890836679784]]},"properties":{"dataset":"route","status":"ACTIVE","tags":["seattle-wa-metro-targets}"],"address":"1401 2nd Ave","city":"Seattle","state":"WA","postalCode":"98101","name":"City Target Pharmacy"}},{"type":"Feature","geometry":{"type":"LineString","coordinates":[[-122.479943,47.237213],[-122.479943,47.237213]]},"properties":{"dataset":"route","status":"ACTIVE","tags":["seattle-wa-metro-targets}"],"address":"3320 S 23rd St","city":"Tacoma","state":"WA","postalCode":"98405","name":"Target"}},{"type":"Feature","geometry":{"type":"LineString","coordinates":[[-122.21087646484375,47.615638732910156],[-122.21087646484375,47.615638732910156]]},"properties":{"dataset":"route","status":"ACTIVE","tags":["seattle-wa-metro-targets}"],"address":"116th Ave NE and NE 4th St","city":"Bellevue","state":"WA","postalCode":"98004","name":"Target"}},{"type":"Feature","geometry":{"type":"LineString","coordinates":[[-122.28549438633813,47.514661094990046],[-122.28549438633813,47.514661094990046]]},"properties":{"dataset":"route","status":"ACTIVE","tags":["seattle-wa-metro-targets}"],"city":"Seattle","state":"WA","postalCode":"98146","name":"Target"}},{"type":"Feature","geometry":{"type":"LineString","coordinates":[[-122.10184956983622,47.99873385922447],[-122.10184956983622,47.99873385922447]]},"properties":{"dataset":"route","status":"ACTIVE","tags":["seattle-wa-metro-targets}"],"address":"9601 Market Pl","city":"Lake Stevens","state":"WA","postalCode":"98258","name":"Target"}},{"type":"Feature","geometry":{"type":"LineString","coordinates":[[-122.338707,47.60855],[-122.338707,47.60855]]},"properties":{"dataset":"route","status":"ACTIVE","tags":["seattle-wa-metro-targets}"],"city":"Seattle","state":"WA","postalCode":"98101","name":"CVS pharmacy"}},{"type":"Feature","geometry":{"type":"LineString","coordinates":[[-122.29525356125173,47.1595174788144],[-122.29525356125173,47.1595174788144]]},"properties":{"dataset":"route","status":"ACTIVE","tags":["seattle-wa-metro-targets}"],"address":"3310 S Meridian","city":"Puyallup","state":"WA","postalCode":"98373","name":"Target"}},{"type":"Feature","geometry":{"type":"LineString","coordinates":[[-122.17178125129034,47.17216244147112],[-122.17178125129034,47.17216244147112]]},"properties":{"dataset":"route","status":"ACTIVE","tags":["seattle-wa-metro-targets}"],"address":"9400 192nd Ave E","city":"Bonney Lake","state":"WA","postalCode":"98391","name":"Target"}},{"type":"Feature","geometry":{"type":"LineString","coordinates":[[-122.32476033851613,47.70897266589911],[-122.32476033851613,47.70897266589911]]},"properties":{"dataset":"route","status":"ACTIVE","tags":["seattle-wa-metro-targets}"],"address":"302 NE Northgate Way","city":"Seattle","state":"WA","postalCode":"98125","name":"Target Pharmacy"}},{"type":"Feature","geometry":{"type":"LineString","coordinates":[[-122.103388,47.672534999999996],[-122.103388,47.672534999999996]]},"properties":{"dataset":"route","status":"ACTIVE","tags":["seattle-wa-metro-targets}"],"city":"Redmond","state":"WA","name":"Target Pharmacy"}},{"type":"Feature","geometry":{"type":"LineString","coordinates":[[-122.3249196,47.7089524],[-122.3249196,47.7089524]]},"properties":{"dataset":"route","status":"ACTIVE","tags":["seattle-wa-metro-targets}"],"address":"302 NE Northgate Way","city":"Seattle","state":"WA","postalCode":"98125","name":"Target Optical"}},{"type":"Feature","geometry":{"type":"LineString","coordinates":[[-122.104239,47.672452],[-122.104239,47.672452]]},"properties":{"dataset":"route","status":"ACTIVE","tags":["seattle-wa-metro-targets}"],"city":"Redmond","state":"WA","postalCode":"98052","name":"Target Drive Up"}}]}