{"type":"FeatureCollection","features":[{"type":"Feature","geometry":{"type":"LineString","coordinates":[[-122.17207523630528,47.57292188987638],[-122.17207523630528,47.57292188987638]]},"properties":{"dataset":"route","status":"ACTIVE","tags":["seattle-wa-metro-walmarts"],"address":"12620 Se 41st Pl","city":"Bellevue","state":"WA","postalCode":"98006","name":"Walmart"}},{"type":"Feature","geometry":{"type":"LineString","coordinates":[[-122.22051338266492,47.472053744125084],[-122.22051338266492,47.472053744125084]]},"properties":{"dataset":"route","status":"ACTIVE","tags":["seattle-wa-metro-walmarts"],"address":"743 Rainier Avenue South","city":"Renton","state":"WA","postalCode":"98057","name":"Walmart Supercenter"}},{"type":"Feature","geometry":{"type":"LineString","coordinates":[[-122.63203084983394,47.62499884440013],[-122.63203084983394,47.62499884440013]]},"properties":{"dataset":"route","status":"ACTIVE","tags":["seattle-wa-metro-walmarts"],"address":"6797 State Highway 303 Ne","city":"Bremerton","state":"WA","postalCode":"98311","name":"Walmart"}},{"type":"Feature","geometry":{"type":"LineString","coordinates":[[-122.25306565478904,47.84842895731361],[-122.25306565478904,47.84842895731361]]},"properties":{"dataset":"route","status":"ACTIVE","tags":["seattle-wa-metro-walmarts"],"address":"1400 164th St Sw","city":"Lynnwood","state":"WA","postalCode":"98087","name":"Walmart"}},{"type":"Feature","geometry":{"type":"LineString","coordinates":[[-122.62812773108381,47.516513562421146],[-122.62812773108381,47.516513562421146]]},"properties":{"dataset":"route","status":"ACTIVE","tags":["seattle-wa-metro-walmarts"],"address":"3497 Bethel Rd Se","city":"Port Orchard","state":"WA","postalCode":"98366","name":"Walmart Supercenter"}},{"type":"Feature","geometry":{"type":"LineString","coordinates":[[-122.25602063444755,47.89432087901932],[-122.25602063444755,47.89432087901932]]},"properties":{"dataset":"route","status":"ACTIVE","tags":["seattle-wa-metro-walmarts"],"address":"11400 Highway 99","city":"Everett","state":"WA","postalCode":"98204","name":"Walmart"}},{"type":"Feature","geometry":{"type":"LineString","coordinates":[[-122.6619351,47.75725724],[-122.6619351,47.75725724]]},"properties":{"dataset":"route","status":"ACTIVE","tags":["seattle-wa-metro-walmarts"],"address":"21200 Olhava Way Nw","city":"Poulsbo","state":"WA","postalCode":"98370","name":"Walmart Supercenter"}},{"type":"Feature","geometry":{"type":"LineString","coordinates":[[-122.3093921619174,47.32132560329672],[-122.3093921619174,47.32132560329672]]},"properties":{"dataset":"route","status":"ACTIVE","tags":["seattle-wa-metro-walmarts"],"address":"1900 S 314th St","city":"Federal Way","state":"WA","postalCode":"98003","name":"Walmart"}},{"type":"Feature","geometry":{"type":"LineString","coordinates":[[-122.10820678488525,47.36084519998767],[-122.10820678488525,47.36084519998767]]},"properties":{"dataset":"route","status":"ACTIVE","tags":["seattle-wa-metro-walmarts"],"address":"17432 Se 270th Pl","city":"Covington","state":"WA","postalCode":"98042","name":"Walmart"}},{"type":"Feature","geometry":{"type":"LineString","coordinates":[[-122.3105105392719,47.292351381718746],[-122.3105105392719,47.292351381718746]]},"properties":{"dataset":"route","status":"ACTIVE","tags":["seattle-wa-metro-walmarts"],"address":"34520 16th Ave S","city":"Federal Way","state":"WA","postalCode":"98003","name":"Walmart Supercenter"}},{"type":"Feature","geometry":{"type":"LineString","coordinates":[[-122.21387199327572,47.91415104971558],[-122.21387199327572,47.91415104971558]]},"properties":{"dataset":"route","status":"ACTIVE","tags":["seattle-wa-metro-walmarts"],"address":"1605 Se Everett Mall Way","city":"Everett","state":"WA","postalCode":"98208","name":"Walmart Supercenter"}},{"type":"Feature","geometry":{"type":"LineString","coordinates":[[-122.24124948371039,47.30165895610171],[-122.24124948371039,47.30165895610171]]},"properties":{"dataset":"route","status":"ACTIVE","tags":["seattle-wa-metro-walmarts"],"address":"762 Outlet Collection Way","city":"Auburn","state":"WA","postalCode":"98001","name":"Walmart Supercenter"}},{"type":"Feature","geometry":{"type":"LineString","coordinates":[[-121.97246654701362,47.86569132170517],[-121.97246654701362,47.86569132170517]]},"properties":{"dataset":"route","status":"ACTIVE","tags":["seattle-wa-metro-walmarts"],"address":"19191 N Kelsey Street","city":"Monroe","state":"WA","postalCode":"98272","name":"Walmart Supercenter"}},{"type":"Feature","geometry":{"type":"LineString","coordinates":[[-122.4788200533883,47.23997548765972],[-122.4788200533883,47.23997548765972]]},"properties":{"dataset":"route","status":"ACTIVE","tags":["seattle-wa-metro-walmarts"],"address":"1965 S. Union Ave","city":"Tacoma","state":"WA","postalCode":"98405","name":"Walmart Supercenter"}},{"type":"Feature","geometry":{"type":"LineString","coordinates":[[-122.2895662383334,47.16085262835043],[-122.2895662383334,47.16085262835043]]},"properties":{"dataset":"route","status":"ACTIVE","tags":["seattle-wa-metro-walmarts"],"address":"310 31st Ave Se","city":"Puyallup","state":"WA","postalCode":"98374","name":"Walmart Supercenter"}},{"type":"Feature","geometry":{"type":"LineString","coordinates":[[-122.17165237156571,47.16817279493129],[-122.17165237156571,47.16817279493129]]},"properties":{"dataset":"route","status":"ACTIVE","tags":["seattle-wa-metro-walmarts"],"address":"19205 State Route 410 E","city":"Bonney Lake","state":"WA","postalCode":"98391","name":"Walmart Supercenter"}},{"type":"Feature","geometry":{"type":"LineString","coordinates":[[-122.442269,47.25599],[-122.442269,47.25599]]},"properties":{"dataset":"route","status":"ACTIVE","tags":["seattle-wa-metro-walmarts"],"city":"Tacoma","state":"WA","name":"Walmart"}},{"type":"Feature","geometry":{"type":"LineString","coordinates":[[-122.2969874330369,47.106019180130346],[-122.2969874330369,47.106019180130346]]},"properties":{"dataset":"route","status":"ACTIVE","tags":["seattle-wa-metro-walmarts"],"address":"16502 Meridian E","city":"Puyallup","state":"WA","postalCode":"98375","name":"Walmart Supercenter"}}]}