{"Target":{"Houston, TX":{"type":"FeatureCollection","features":[{"type":"Feature","geometry":{"type":"Point","coordinates":[-95.38498275102646,29.77467685280716]},"properties":{"address":"2580 Shearn St","city":"Houston","state":"TX","postalCode":"77007","name":"Target"}},{"type":"Feature","geometry":{"type":"Point","coordinates":[-95.41843855877896,29.692844991400705]},"properties":{"address":"8500 Main St","city":"Houston","state":"TX","postalCode":"77025","name":"Target"}},{"type":"Feature","geometry":{"type":"Point","coordinates":[-95.45362958238226,29.74507658164775]},"properties":{"address":"4323 San Felipe St","city":"Houston","state":"TX","postalCode":"77027","name":"Target"}},{"type":"Feature","geometry":{"type":"Point","coordinates":[-95.54213785972112,29.782451009519765]},"properties":{"address":"984 Gessner Rd","city":"Houston","state":"TX","postalCode":"77024","name":"Target"}},{"type":"Feature","geometry":{"type":"Point","coordinates":[-95.462403432708,29.686719006040402]},"properties":{"address":"300 Meyerland Plaza Mall","city":"Houston","state":"TX","postalCode":"77096","name":"Target"}},{"type":"Feature","geometry":{"type":"Point","coordinates":[-95.6267438421302,29.732804941168112]},"properties":{"address":"2700 Eldridge Pkwy","city":"Houston","state":"TX","postalCode":"77082","name":"Target"}},{"type":"Feature","geometry":{"type":"Point","coordinates":[-95.38386608166181,29.55323364184265]},"properties":{"address":"3045 Silverlake Village Dr","city":"Pearland","state":"TX","postalCode":"77584","name":"Target"}},{"type":"Feature","geometry":{"type":"Point","coordinates":[-95.5174901003278,29.735120688291364]},"properties":{"address":"8605 Westheimer Rd","city":"Houston","state":"TX","postalCode":"77063","name":"Target"}},{"type":"Feature","geometry":{"type":"Point","coordinates":[-95.50263827750311,29.849260379664457]},"properties":{"address":"13250 Northwest Fwy","city":"Houston","state":"TX","postalCode":"77040","name":"Target"}},{"type":"Feature","geometry":{"type":"Point","coordinates":[-95.1524904211031,29.65231116078195]},"properties":{"address":"5757 Fairmont Pkwy","city":"Pasadena","state":"TX","postalCode":"77505","name":"Target"}},{"type":"Feature","geometry":{"type":"Point","coordinates":[-95.26454888740288,29.602102189467733]},"properties":{"address":"8503 S Sam Houston Pkwy E","city":"Houston","state":"TX","postalCode":"77075","name":"Target"}},{"type":"Feature","geometry":{"type":"Point","coordinates":[-95.56825485108713,29.735493661085858]},"properties":{"address":"10801 Westheimer Rd","city":"Houston","state":"TX","postalCode":"77042","name":"Target"}},{"type":"Feature","geometry":{"type":"Point","coordinates":[-95.627799,29.596071]},"properties":{"address":"16300 Southwest Fwy","city":"Sugar Land","state":"TX","postalCode":"77479","name":"Target"}},{"type":"Feature","geometry":{"type":"Point","coordinates":[-95.409419,29.741131]},"properties":{"address":"2075 Westheimer Rd","city":"Houston","state":"TX","postalCode":"77098","name":"Target"}},{"type":"Feature","geometry":{"type":"Point","coordinates":[-95.15131372691575,29.536540006866534]},"properties":{"address":"1801 W Bay Area Blvd","city":"Webster","state":"TX","postalCode":"77598","name":"Target"}},{"type":"Feature","geometry":{"type":"Point","coordinates":[-95.43442143330343,30.050390048148827]},"properties":{"address":"19511 Interstate 45","city":"Spring","state":"TX","postalCode":"77388","name":"Target"}},{"type":"Feature","geometry":{"type":"Point","coordinates":[-95.53110870819143,29.967817644588504]},"properties":{"address":"6801 FM 1960 Rd W","city":"Houston","state":"TX","postalCode":"77069","name":"Target"}},{"type":"Feature","geometry":{"type":"Point","coordinates":[-95.56789569319234,29.566198807212526]},"properties":{"address":"6000 Highway 6","city":"Missouri City","state":"TX","postalCode":"77459","name":"Target"}},{"type":"Feature","geometry":{"type":"Point","coordinates":[-95.775962,29.7358044]},"properties":{"address":"23710 Westheimer Pkwy","city":"Katy","state":"TX","postalCode":"77494","name":"Target"}},{"type":"Feature","geometry":{"type":"Point","coordinates":[-95.58423021252734,29.999891646659176]},"properties":{"address":"21515 State Highway 249","city":"Houston","state":"TX","postalCode":"77070","name":"Target"}},{"type":"Feature","geometry":{"type":"Point","coordinates":[-95.64681126841685,29.87751497081766]},"properties":{"address":"6955 Highway 6 N","city":"Houston","state":"TX","postalCode":"77084","name":"Target"}},{"type":"Feature","geometry":{"type":"Point","coordinates":[-95.17269556460901,30.00055415493944]},"properties":{"address":"6931 FM 1960 Rd E","city":"Atascocita","state":"TX","postalCode":"77346","name":"Target"}},{"type":"Feature","geometry":{"type":"Point","coordinates":[-95.60500228655664,29.919220830290005]},"properties":{"address":"12701 FM 1960 Rd W","city":"Houston","state":"TX","postalCode":"77065","name":"Target"}},{"type":"Feature","geometry":{"type":"Point","coordinates":[-95.45346326806491,30.169450583689613]},"properties":{"address":"1100 Lake Woodlands Dr","city":"The Woodlands","state":"TX","postalCode":"77380","name":"Target"}},{"type":"Feature","geometry":{"type":"Point","coordinates":[-95.2686303,30.0191404]},"properties":{"address":"20777 Highway 59 N","city":"Humble","state":"TX","postalCode":"77338","name":"Target"}},{"type":"Feature","geometry":{"type":"Point","coordinates":[-95.02256318739892,29.53924243748492]},"properties":{"address":"255 Marina Bay Dr","city":"Clear Lake Shores","state":"TX","postalCode":"77565","name":"Target"}},{"type":"Feature","geometry":{"type":"Point","coordinates":[-94.97627837799706,29.77169708412363]},"properties":{"address":"4510 Garth Rd","city":"Baytown","state":"TX","postalCode":"77521","name":"Target"}},{"type":"Feature","geometry":{"type":"Point","coordinates":[-95.08512123482551,29.46615050127715]},"properties":{"address":"1801 Gulf Fwy","city":"Dickinson","state":"TX","postalCode":"77539","name":"Target"}},{"type":"Feature","geometry":{"type":"Point","coordinates":[-95.71056418825226,29.658281278752884]},"properties":{"address":"10241 W Grand Pkwy S","city":"Richmond","state":"TX","postalCode":"77407","name":"Target"}},{"type":"Feature","geometry":{"type":"Point","coordinates":[-95.71606636047363,29.782164440446582]},"properties":{"address":"19955 Katy Fwy","city":"Houston","state":"TX","postalCode":"77094","name":"Target"}}]},"Dallas, TX":{"type":"FeatureCollection","features":[{"type":"Feature","geometry":{"type":"Point","coordinates":[-96.7914712429046,32.803724741007805]},"properties":{"address":"2417 N Haskell Ave","city":"Dallas","state":"TX","postalCode":"75204","name":"Target"}},{"type":"Feature","geometry":{"type":"Point","coordinates":[-96.75264358520508,32.85707678731128]},"properties":{"address":"212 Medallion Shopping Ctr.","city":"Dallas","state":"TX","postalCode":"75214","name":"Target"}},{"type":"Feature","geometry":{"type":"Point","coordinates":[-96.7456566,32.8654785]},"properties":{"address":"6419 Skillman St","city":"Dallas","state":"TX","postalCode":"75231","name":"Target"}},{"type":"Feature","geometry":{"type":"Point","coordinates":[-96.85386876592146,32.950908704806345]},"properties":{"address":"3730 Belt Line Rd","city":"Addison","state":"TX","postalCode":"75001","name":"Target"}},{"type":"Feature","geometry":{"type":"Point","coordinates":[-96.9625836611885,32.9134651273591]},"properties":{"address":"7845 N MacArthur Blvd","city":"Irving","state":"TX","postalCode":"75063","name":"Target"}},{"type":"Feature","geometry":{"type":"Point","coordinates":[-96.85431395188571,32.862575112632975]},"properties":{"address":"9440 Marsh Ln","city":"Dallas","state":"TX","postalCode":"75220","name":"Target"}},{"type":"Feature","geometry":{"type":"Point","coordinates":[-96.82742539841693,33.030470200293465]},"properties":{"address":"2200 Dallas Pkwy","city":"Plano","state":"TX","postalCode":"75093","name":"Target"}},{"type":"Feature","geometry":{"type":"Point","coordinates":[-96.81316316597072,32.927884250104256]},"properties":{"address":"13131 Montfort Dr","city":"Dallas","state":"TX","postalCode":"75240","name":"Target"}},{"type":"Feature","geometry":{"type":"Point","coordinates":[-97.10443989431145,32.880305031464786]},"properties":{"address":"1401 W Glade Rd","city":"Euless","state":"TX","postalCode":"76039","name":"Target"}},{"type":"Feature","geometry":{"type":"Point","coordinates":[-96.99093681638834,32.839330369566284]},"properties":{"address":"3333 W Airport Fwy","city":"Irving","state":"TX","postalCode":"75062","name":"Target"}},{"type":"Feature","geometry":{"type":"Point","coordinates":[-96.88494982537502,33.064195153620325]},"properties":{"address":"4760 State Highway 121","city":"Lewisville","state":"TX","postalCode":"75056","name":"Target"}},{"type":"Feature","geometry":{"type":"Point","coordinates":[-96.76970957059834,32.98243226856123]},"properties":{"address":"16731 Coit Rd","city":"Dallas","state":"TX","postalCode":"75248","name":"Target"}},{"type":"Feature","geometry":{"type":"Point","coordinates":[-96.81202690051732,33.10437225045824]},"properties":{"address":"3201 Preston Rd","city":"Frisco","state":"TX","postalCode":"75034","name":"Target"}},{"type":"Feature","geometry":{"type":"Point","coordinates":[-96.64657088636797,32.965322082933326]},"properties":{"address":"5301 N Garland Ave","city":"Garland","state":"TX","postalCode":"75040","name":"Target"}},{"type":"Feature","geometry":{"type":"Point","coordinates":[-97.0895829971384,32.93063083272722]},"properties":{"address":"1101 Ira E Woods Ave","city":"Grapevine","state":"TX","postalCode":"76051","name":"Target"}},{"type":"Feature","geometry":{"type":"Point","coordinates":[-96.62114991085873,32.813485301163105]},"properties":{"address":"1629 N Town East Blvd","city":"Mesquite","state":"TX","postalCode":"75150","name":"Target"}},{"type":"Feature","geometry":{"type":"Point","coordinates":[-96.97069264979146,33.01232728357005]},"properties":{"address":"725 Hebron Pkwy","city":"Lewisville","state":"TX","postalCode":"75057","name":"Target"}},{"type":"Feature","geometry":{"type":"Point","coordinates":[-96.86295036785891,32.649933424873666]},"properties":{"address":"39739 Lyndon B Johnson Fwy","city":"Dallas","state":"TX","postalCode":"75237","name":"Target"}},{"type":"Feature","geometry":{"type":"Point","coordinates":[-96.9367145772834,32.603303196712254]},"properties":{"address":"739 N Highway 67","city":"Cedar Hill","state":"TX","postalCode":"75104","name":"Target"}},{"type":"Feature","geometry":{"type":"Point","coordinates":[-96.59364409804454,33.00925323371537]},"properties":{"address":"3440 W FM 544","city":"Wylie","state":"TX","postalCode":"75098","name":"Target"}},{"type":"Feature","geometry":{"type":"Point","coordinates":[-97.06055522642671,32.64300245208594]},"properties":{"address":"5270 S State Highway 360","city":"Grand Prairie","state":"TX","postalCode":"75052","name":"Target"}},{"type":"Feature","geometry":{"type":"Point","coordinates":[-97.18374575544779,32.836369301450915]},"properties":{"address":"1400 Precinct Line Rd","city":"Hurst","state":"TX","postalCode":"76053","name":"Target"}},{"type":"Feature","geometry":{"type":"Point","coordinates":[-97.13603832801509,32.68409889335653]},"properties":{"address":"1600 W Arbrook Blvd","city":"Arlington","state":"TX","postalCode":"76015","name":"Target"}},{"type":"Feature","geometry":{"type":"Point","coordinates":[-96.70815945300818,33.037358492036184]},"properties":{"address":"120 W Parker Rd","city":"Plano","state":"TX","postalCode":"75075","name":"Target"}},{"type":"Feature","geometry":{"type":"Point","coordinates":[-97.00965017930254,32.67801135484272]},"properties":{"address":"554 W Interstate 20","city":"Grand Prairie","state":"TX","postalCode":"75052","name":"Target"}},{"type":"Feature","geometry":{"type":"Point","coordinates":[-96.46787177758476,32.89409810129071]},"properties":{"address":"850 Steger Towne Rd","city":"Rockwall","state":"TX","postalCode":"75032","name":"Target"}},{"type":"Feature","geometry":{"type":"Point","coordinates":[-96.55802884390384,32.9089796854774]},"properties":{"address":"4701 Lakeview Pkwy","city":"Rowlett","state":"TX","postalCode":"75088","name":"Target"}},{"type":"Feature","geometry":{"type":"Point","coordinates":[-96.73067770255739,33.12914065668947]},"properties":{"address":"8900 State Highway 121","city":"McKinney","state":"TX","postalCode":"75070","name":"Target"}},{"type":"Feature","geometry":{"type":"Point","coordinates":[-96.66174541672487,33.12390783366084]},"properties":{"address":"150 E Stacy Rd","city":"Allen","state":"TX","postalCode":"75002","name":"Target"}},{"type":"Feature","geometry":{"type":"Point","coordinates":[-97.18836232307834,32.90821745718941]},"properties":{"address":"8532 Davis Blvd","city":"North Richland Hills","state":"TX","postalCode":"76182","name":"Target"}}]},"Detroit, MI":{"type":"FeatureCollection","features":[{"type":"Feature","geometry":{"type":"Point","coordinates":[-83.2066,42.28524]},"properties":{"address":"3100 Fairlane Dr","city":"Allen Park","state":"MI","postalCode":"48101","name":"Target"}},{"type":"Feature","geometry":{"type":"Point","coordinates":[-83.08329770482524,42.50363229761092]},"properties":{"address":"28800 Dequindre Rd","city":"Warren","state":"MI","postalCode":"48092","name":"Target"}},{"type":"Feature","geometry":{"type":"Point","coordinates":[-83.10836418602717,42.52849328983444]},"properties":{"address":"32001 John R Rd","city":"Madison Heights","state":"MI","postalCode":"48071","name":"Target"}},{"type":"Feature","geometry":{"type":"Point","coordinates":[-83.2245858988089,42.137746148892155]},"properties":{"address":"23555 Allen Rd","city":"Woodhaven","state":"MI","postalCode":"48183","name":"Target"}},{"type":"Feature","geometry":{"type":"Point","coordinates":[-83.18958353851205,42.545166602131935]},"properties":{"address":"1301 Coolidge Hwy","city":"Troy","state":"MI","postalCode":"48084","name":"Target"}},{"type":"Feature","geometry":{"type":"Point","coordinates":[-83.33480079613183,42.3667339948492]},"properties":{"address":"29451 Plymouth Rd","city":"Livonia","state":"MI","postalCode":"48150","name":"Target"}},{"type":"Feature","geometry":{"type":"Point","coordinates":[-83.30267214640739,42.32821396167492]},"properties":{"address":"26650 Ford Rd","city":"Dearborn Heights","state":"MI","postalCode":"48127","name":"Target"}},{"type":"Feature","geometry":{"type":"Point","coordinates":[-83.43160228118357,42.43441532748313]},"properties":{"address":"20100 Haggerty Rd","city":"Livonia","state":"MI","postalCode":"48152","name":"Target"}},{"type":"Feature","geometry":{"type":"Point","coordinates":[-83.25512811475065,42.20327360297499]},"properties":{"address":"14099 Pardee Rd","city":"Taylor","state":"MI","postalCode":"48180","name":"Target"}},{"type":"Feature","geometry":{"type":"Point","coordinates":[-83.12925529503833,42.638055476236325]},"properties":{"address":"2887 S Rochester Rd","city":"Rochester Hills","state":"MI","postalCode":"48307","name":"Target"}},{"type":"Feature","geometry":{"type":"Point","coordinates":[-83.08535508843245,42.561897178816295]},"properties":{"address":"2310 Metropolitan Pkwy","city":"Sterling Heights","state":"MI","postalCode":"48310","name":"Target"}},{"type":"Feature","geometry":{"type":"Point","coordinates":[-83.3435333573504,42.452082758533216]},"properties":{"address":"30020 Grand River Ave","city":"Farmington Hills","state":"MI","postalCode":"48336","name":"Target"}},{"type":"Feature","geometry":{"type":"Point","coordinates":[-82.99679494816253,42.62848949448371]},"properties":{"address":"13221 Hall Rd","city":"Utica","state":"MI","postalCode":"48315","name":"Target"}},{"type":"Feature","geometry":{"type":"Point","coordinates":[-83.39042450513936,42.33725682961372]},"properties":{"address":"35401 Warren Rd","city":"Westland","state":"MI","postalCode":"48185","name":"Target"}},{"type":"Feature","geometry":{"type":"Point","coordinates":[-82.91255740894451,42.630732416764765]},"properties":{"address":"20877 Hall Rd","city":"Macomb","state":"MI","postalCode":"48044","name":"Target"}},{"type":"Feature","geometry":{"type":"Point","coordinates":[-83.29337091454907,42.603597247972694]},"properties":{"address":"2400 S Telegraph Rd","city":"Bloomfield Hills","state":"MI","postalCode":"48302","name":"Target"}},{"type":"Feature","geometry":{"type":"Point","coordinates":[-83.47145051599142,42.323468898759494]},"properties":{"address":"43670 Ford Rd","city":"Canton","state":"MI","postalCode":"48187","name":"Target"}},{"type":"Feature","geometry":{"type":"Point","coordinates":[-83.19948698475586,42.32783042723582]},"properties":{"address":"15901 Ford Rd","city":"Dearborn","state":"MI","postalCode":"48126","name":"Target"}},{"type":"Feature","geometry":{"type":"Point","coordinates":[-83.44140442444161,42.53395952053095]},"properties":{"address":"495 Haggerty Hwy","city":"Walled Lake","state":"MI","postalCode":"48390","name":"Target"}},{"type":"Feature","geometry":{"type":"Point","coordinates":[-83.50298841168569,42.269544203489495]},"properties":{"address":"47330 Michigan Ave","city":"Canton","state":"MI","postalCode":"48188","name":"Target"}},{"type":"Feature","geometry":{"type":"Point","coordinates":[-82.82906384254343,42.67703876472569]},"properties":{"address":"51400 Gratiot Ave","city":"Chesterfield","state":"MI","postalCode":"48051","name":"Target"}},{"type":"Feature","geometry":{"type":"Point","coordinates":[-83.22510686791783,42.51285786271385]},"properties":{"address":"30333 Southfield Rd","city":"Southfield","state":"MI","postalCode":"48076","name":"Target"}},{"type":"Feature","geometry":{"type":"Point","coordinates":[-83.53369685334961,42.488154752867665]},"properties":{"address":"27100 Wixom Rd","city":"Novi","state":"MI","postalCode":"48374","name":"Target"}},{"type":"Feature","geometry":{"type":"Point","coordinates":[-83.03326923508749,42.71130203109908]},"properties":{"address":"8200 26 Mile Rd","city":"Shelby Township","state":"MI","postalCode":"48316","name":"Target"}},{"type":"Feature","geometry":{"type":"Point","coordinates":[-82.90298909778285,42.54549213791514]},"properties":{"address":"33860 S Gratiot Ave","city":"Clinton Township","state":"MI","postalCode":"48035","name":"Target"}}]},"Boston, MA":{"type":"FeatureCollection","features":[{"type":"Feature","geometry":{"type":"Point","coordinates":[-71.09996097636629,42.34412519096285]},"properties":{"address":"1341 Boylston St","city":"Boston","state":"MA","postalCode":"02215","name":"Target"}},{"type":"Feature","geometry":{"type":"Point","coordinates":[-71.09056338735469,42.37681282245501]},"properties":{"address":"180 Somerville Ave","city":"Somerville","state":"MA","postalCode":"02143","name":"Target"}},{"type":"Feature","geometry":{"type":"Point","coordinates":[-71.06267,42.361032]},"properties":{"address":"100 Cambridge St","city":"Boston","state":"MA","postalCode":"02114","name":"Target"}},{"type":"Feature","geometry":{"type":"Point","coordinates":[-71.06317520141602,42.329306587948814]},"properties":{"address":"7 Allstate Rd","city":"Dorchester","state":"MA","postalCode":"02125","name":"Target"}},{"type":"Feature","geometry":{"type":"Point","coordinates":[-71.07189839295629,42.39895318678095]},"properties":{"address":"1 Mystic View Rd","city":"Everett","state":"MA","postalCode":"02149","name":"Target"}},{"type":"Feature","geometry":{"type":"Point","coordinates":[-71.114038105589,42.35064489239271]},"properties":{"address":"860 Commonwealth Ave","city":"Boston","state":"MA","postalCode":"02215","name":"Target"}},{"type":"Feature","geometry":{"type":"Point","coordinates":[-71.00043376182616,42.39981456360913]},"properties":{"address":"36 Furlong Dr","city":"Revere","state":"MA","postalCode":"02151","name":"Target"}},{"type":"Feature","geometry":{"type":"Point","coordinates":[-71.02414567324344,42.481821697042314]},"properties":{"address":"400 Lynn Fells Pkwy","city":"Saugus","state":"MA","postalCode":"01906","name":"Target"}},{"type":"Feature","geometry":{"type":"Point","coordinates":[-71.13517344885217,42.51823912000398]},"properties":{"address":"101 Commerce Way","city":"Woburn","state":"MA","postalCode":"01801","name":"Target"}},{"type":"Feature","geometry":{"type":"Point","coordinates":[-70.91950068270205,42.50343146904291]},"properties":{"address":"227 Highland Ave","city":"Salem","state":"MA","postalCode":"01970","name":"Target"}},{"type":"Feature","geometry":{"type":"Point","coordinates":[-70.9374785,42.5533511]},"properties":{"address":"240 Independence Way","city":"Danvers","state":"MA","postalCode":"01923","name":"Target"}},{"type":"Feature","geometry":{"type":"Point","coordinates":[-71.39803235924269,42.305165089963886]},"properties":{"address":"400 Cochituate Rd","city":"Framingham","state":"MA","postalCode":"01701","name":"Target"}},{"type":"Feature","geometry":{"type":"Point","coordinates":[-71.15656702369179,42.36421602383167]},"properties":{"address":"550 Arsenal St","city":"Watertown","state":"MA","postalCode":"02472","name":"Target"}},{"type":"Feature","geometry":{"type":"Point","coordinates":[-71.0725193,42.1522295]},"properties":{"address":"1 Hawes Way","city":"Stoughton","state":"MA","postalCode":"02072","name":"Target"}},{"type":"Feature","geometry":{"type":"Point","coordinates":[-71.1026234695315,42.364612018767104]},"properties":{"address":"564 Massachusetts Ave","city":"Cambridge","state":"MA","postalCode":"02139","name":"Target"}},{"type":"Feature","geometry":{"type":"Point","coordinates":[-71.31760677126037,42.62385136385949]},"properties":{"address":"181 Plain St","city":"Lowell","state":"MA","postalCode":"01852","name":"Target"}},{"type":"Feature","geometry":{"type":"Point","coordinates":[-71.05560302734375,42.29676055908203]},"properties":{"address":"500 Geneva Ave","city":"Boston","state":"MA","postalCode":"02122","name":"Target"}},{"type":"Feature","geometry":{"type":"Point","coordinates":[-71.50508324591003,42.34870935733594]},"properties":{"address":"605 Boston Post Rd E","city":"Marlborough","state":"MA","postalCode":"01752","name":"Target"}},{"type":"Feature","geometry":{"type":"Point","coordinates":[-70.92786632301757,42.110507898987514]},"properties":{"address":"385 Centre Ave","city":"Abington","state":"MA","postalCode":"02351","name":"Target"}},{"type":"Feature","geometry":{"type":"Point","coordinates":[-71.31061046718419,42.033684405161914]},"properties":{"address":"91 Taunton St","city":"Plainville","state":"MA","postalCode":"02762","name":"Target"}},{"type":"Feature","geometry":{"type":"Point","coordinates":[-71.02189913500285,42.22135073436039]},"properties":{"address":"250 Granite St","city":"Braintree","state":"MA","postalCode":"02184","name":"Target"}},{"type":"Feature","geometry":{"type":"Point","coordinates":[-70.83869154643394,42.13747612704604]},"properties":{"address":"1167 Washington St","city":"Hanover","state":"MA","postalCode":"02339","name":"Target"}},{"type":"Feature","geometry":{"type":"Point","coordinates":[-71.12665895436466,42.28820442046369]},"properties":{"address":"4165 Washington St","city":"Roslindale","state":"MA","postalCode":"02131","name":"Target"}},{"type":"Feature","geometry":{"type":"Point","coordinates":[-71.1438898404676,42.027231778352366]},"properties":{"address":"41 Robert Dr","city":"South Easton","state":"MA","postalCode":"02375","name":"Target"}},{"type":"Feature","geometry":{"type":"Point","coordinates":[-71.49864421800926,42.160800646603]},"properties":{"address":"250 Fortune Blvd","city":"Milford","state":"MA","postalCode":"01757","name":"Target"}},{"type":"Feature","geometry":{"type":"Point","coordinates":[-71.15513412383532,42.20448313084727]},"properties":{"address":"221 University Ave","city":"Westwood","state":"MA","postalCode":"02090","name":"Target"}},{"type":"Feature","geometry":{"type":"Point","coordinates":[-71.10344844671722,42.495126915828095]},"properties":{"address":"113 Main St","city":"Stoneham","state":"MA","postalCode":"02180","name":"Target"}},{"type":"Feature","geometry":{"type":"Point","coordinates":[-71.18588235954009,42.48406896454872]},"properties":{"address":"34 Cambridge St. STE 145","city":"Burlington","state":"MA","postalCode":"01803","name":"Target"}},{"type":"Feature","geometry":{"type":"Point","coordinates":[-71.16126170334692,42.74058583982023]},"properties":{"address":"67 Pleasant Valley St","city":"Methuen","state":"MA","postalCode":"01844","name":"Target"}},{"type":"Feature","geometry":{"type":"Point","coordinates":[-71.11595829663685,42.78811658053767]},"properties":{"address":"35 Computer Dr","city":"Haverhill","state":"MA","postalCode":"01832","name":"Target"}}]},"New York, NY":{"type":"FeatureCollection","features":[{"type":"Feature","geometry":{"type":"Point","coordinates":[-73.989309,40.750245]},"properties":{"address":"112 W 34th St","city":"New York","state":"NY","postalCode":"10120","name":"Target"}},{"type":"Feature","geometry":{"type":"Point","coordinates":[-73.982561,40.770114]},"properties":{"address":"1863 Broadway","city":"New York","state":"NY","postalCode":"10023","name":"Target"}},{"type":"Feature","geometry":{"type":"Point","coordinates":[-74.0113094250647,40.71469071790318]},"properties":{"address":"255 Greenwich St","city":"New York","state":"NY","postalCode":"10007","name":"Target"}},{"type":"Feature","geometry":{"type":"Point","coordinates":[-73.97670985793114,40.68429401866622]},"properties":{"address":"139 Flatbush Ave","city":"Brooklyn","state":"NY","postalCode":"11217","name":"Target"}},{"type":"Feature","geometry":{"type":"Point","coordinates":[-73.9836538255136,40.69060069313813]},"properties":{"address":"445 Albee Sq","city":"Brooklyn","state":"NY","postalCode":"11201","name":"Target"}},{"type":"Feature","geometry":{"type":"Point","coordinates":[-74.03567,40.73235]},"properties":{"address":"100 14th St","city":"Jersey City","state":"NJ","postalCode":"07310","name":"Target"}},{"type":"Feature","geometry":{"type":"Point","coordinates":[-73.98011876674077,40.73030313000108]},"properties":{"address":"500 E 14th St","city":"New York","state":"NY","postalCode":"10009","name":"Target"}},{"type":"Feature","geometry":{"type":"Point","coordinates":[-73.978092,40.741484]},"properties":{"address":"512 2nd Ave","city":"New York","state":"NY","postalCode":"10016","name":"Target"}},{"type":"Feature","geometry":{"type":"Point","coordinates":[-73.994541,40.761085]},"properties":{"address":"615 10th Av","city":"New York","state":"NY","postalCode":"10036","name":"Target"}},{"type":"Feature","geometry":{"type":"Point","coordinates":[-73.874913,40.735331]},"properties":{"address":"8801 Queens Blvd","city":"Elmhurst","state":"NY","postalCode":"11373","name":"Target"}},{"type":"Feature","geometry":{"type":"Point","coordinates":[-73.9820983972756,40.8136455046194]},"properties":{"address":"543 River Rd","city":"Edgewater","state":"NJ","postalCode":"07020","name":"Target"}},{"type":"Feature","geometry":{"type":"Point","coordinates":[-74.1353987700274,40.82486454225173]},"properties":{"address":"30 Kingsland Rd","city":"Clifton","state":"NJ","postalCode":"07014","name":"Target"}},{"type":"Feature","geometry":{"type":"Point","coordinates":[-73.83462082168053,40.757678066192916]},"properties":{"address":"4024 College Point Blvd Level F","city":"Flushing","state":"NY","postalCode":"11354","name":"Target"}},{"type":"Feature","geometry":{"type":"Point","coordinates":[-73.94671917085888,40.631564035200206]},"properties":{"address":"1598 Flatbush Ave","city":"Brooklyn","state":"NY","postalCode":"11210","name":"Target"}},{"type":"Feature","geometry":{"type":"Point","coordinates":[-73.93135683128891,40.79528590433512]},"properties":{"address":"517 E 117th St","city":"New York","state":"NY","postalCode":"10035","name":"Target"}},{"type":"Feature","geometry":{"type":"Point","coordinates":[-74.02142,40.801743]},"properties":{"address":"7101 Tonnelle Ave","city":"North Bergen","state":"NJ","postalCode":"07047","name":"Target"}},{"type":"Feature","geometry":{"type":"Point","coordinates":[-74.06068287960059,40.915746566597235]},"properties":{"address":"900 Bergen Town Ctr","city":"Paramus","state":"NJ","postalCode":"07652","name":"Target"}},{"type":"Feature","geometry":{"type":"Point","coordinates":[-73.83315621898345,40.78339073372374]},"properties":{"address":"13505 20th Ave","city":"College Point","state":"NY","postalCode":"11356","name":"Target"}},{"type":"Feature","geometry":{"type":"Point","coordinates":[-73.9865096436204,40.716257106976364]},"properties":{"address":"400 Grand St","city":"New York","state":"NY","postalCode":"10002","name":"Target"}},{"type":"Feature","geometry":{"type":"Point","coordinates":[-74.03892148778607,40.898615214304066]},"properties":{"address":"630 Main St","city":"Hackensack","state":"NJ","postalCode":"07601","name":"Target"}},{"type":"Feature","geometry":{"type":"Point","coordinates":[-73.8696974115279,40.65263363563504]},"properties":{"address":"519 Gateway Dr","city":"Brooklyn","state":"NY","postalCode":"11239","name":"Target"}},{"type":"Feature","geometry":{"type":"Point","coordinates":[-73.93039292307022,40.82343604513799]},"properties":{"address":"700 Exterior St","city":"Bronx","state":"NY","postalCode":"10451","name":"Target"}},{"type":"Feature","geometry":{"type":"Point","coordinates":[-74.000977,40.593208]},"properties":{"address":"8973-95 Bay Pkwy","city":"Brooklyn","state":"NY","postalCode":"11214","name":"Target"}},{"type":"Feature","geometry":{"type":"Point","coordinates":[-73.6000206887506,40.74189691335446]},"properties":{"address":"999 Corporate Dr","city":"Westbury","state":"NY","postalCode":"11590","name":"Target"}},{"type":"Feature","geometry":{"type":"Point","coordinates":[-73.90772557370363,40.873437410462145]},"properties":{"address":"40 W 225th St","city":"Bronx","state":"NY","postalCode":"10463","name":"Target"}},{"type":"Feature","geometry":{"type":"Point","coordinates":[-73.83781845972548,40.8241656560098]},"properties":{"address":"815 Hutchinson River Pkwy","city":"Bronx","state":"NY","postalCode":"10465","name":"Target"}},{"type":"Feature","geometry":{"type":"Point","coordinates":[-73.98941925631327,40.61945422837669]},"properties":{"address":"6401 18th Ave","city":"Brooklyn","state":"NY","postalCode":"11204","name":"Target"}},{"type":"Feature","geometry":{"type":"Point","coordinates":[-73.72011969169348,40.66423941168716]},"properties":{"address":"500 W Sunrise Hwy","city":"Valley Stream","state":"NY","postalCode":"11581","name":"Target"}},{"type":"Feature","geometry":{"type":"Point","coordinates":[-74.28485450847968,40.71559838371119]},"properties":{"address":"2235 Springfield Ave","city":"Vauxhall","state":"NJ","postalCode":"07088","name":"Target"}},{"type":"Feature","geometry":{"type":"Point","coordinates":[-73.96168,40.768359]},"properties":{"address":"1201 3rd Ave","city":"New York","state":"NY","postalCode":"10021","name":"Target"}}]},"Los Angeles, CA":{"type":"FeatureCollection","features":[{"type":"Feature","geometry":{"type":"Point","coordinates":[-118.26089064763896,34.048769152386676]},"properties":{"address":"735 S Figueroa St","city":"Los Angeles","state":"CA","postalCode":"90017","name":"Target"}},{"type":"Feature","geometry":{"type":"Point","coordinates":[-118.309755,34.0978198]},"properties":{"address":"5500 W Sunset Blvd","city":"Los Angeles","state":"CA","postalCode":"90028","name":"Target"}},{"type":"Feature","geometry":{"type":"Point","coordinates":[-118.14748079792446,34.09108439073888]},"properties":{"address":"2120 W Main St","city":"Alhambra","state":"CA","postalCode":"91801","name":"Target"}},{"type":"Feature","geometry":{"type":"Point","coordinates":[-118.22429384368343,34.141498913778584]},"properties":{"address":"2626 Colorado Blvd","city":"Los Angeles","state":"CA","postalCode":"90041","name":"Target"}},{"type":"Feature","geometry":{"type":"Point","coordinates":[-118.37546061351601,34.07501061420209]},"properties":{"address":"8480 Beverly Blvd","city":"Los Angeles","state":"CA","postalCode":"90048","name":"Target"}},{"type":"Feature","geometry":{"type":"Point","coordinates":[-118.37342083454132,34.02258229566169]},"properties":{"address":"3535 S La Cienega Blvd","city":"Los Angeles","state":"CA","postalCode":"90016","name":"Target"}},{"type":"Feature","geometry":{"type":"Point","coordinates":[-118.258603,34.142998]},"properties":{"address":"2195 Glendale Galleria","city":"Glendale","state":"CA","postalCode":"91210","name":"Target"}},{"type":"Feature","geometry":{"type":"Point","coordinates":[-118.34455970463546,34.089964482467]},"properties":{"address":"7100 Santa Monica Blvd Ste 201","city":"West Hollywood","state":"CA","postalCode":"90046","name":"Target"}},{"type":"Feature","geometry":{"type":"Point","coordinates":[-118.33033,34.18962]},"properties":{"address":"1800 W Empire Ave","city":"Burbank","state":"CA","postalCode":"91504","name":"Target"}},{"type":"Feature","geometry":{"type":"Point","coordinates":[-118.13448197687684,34.1464632831055]},"properties":{"address":"777 E Colorado Blvd","city":"Pasadena","state":"CA","postalCode":"91101","name":"Target"}},{"type":"Feature","geometry":{"type":"Point","coordinates":[-118.39332552286578,33.99895861001252]},"properties":{"address":"10820 Jefferson Blvd","city":"Culver City","state":"CA","postalCode":"90230","name":"Target"}},{"type":"Feature","geometry":{"type":"Point","coordinates":[-118.39462425004291,33.8882861957686]},"properties":{"address":"1200 N Sepulveda Blvd","city":"Manhattan Beach","state":"CA","postalCode":"90266","name":"Target"}},{"type":"Feature","geometry":{"type":"Point","coordinates":[-118.39444523920041,33.9852100462026]},"properties":{"address":"6000 Sepulveda Blvd","city":"Culver City","state":"CA","postalCode":"90230","name":"Target"}},{"type":"Feature","geometry":{"type":"Point","coordinates":[-118.2843432845402,34.025647645644824]},"properties":{"address":"3131 S Hoover St","city":"Los Angeles","state":"CA","postalCode":"90089","name":"Target"}},{"type":"Feature","geometry":{"type":"Point","coordinates":[-118.3165035146748,33.88655240107161]},"properties":{"address":"2169 W Redondo Beach Blvd","city":"Gardena","state":"CA","postalCode":"90247","name":"Target"}},{"type":"Feature","geometry":{"type":"Point","coordinates":[-118.32106936368497,33.922424288956506]},"properties":{"address":"2700 W 120th St","city":"Hawthorne","state":"CA","postalCode":"90250","name":"Target"}},{"type":"Feature","geometry":{"type":"Point","coordinates":[-118.34394,34.049394]},"properties":{"address":"1302 S La Brea Ave Ste A","city":"Los Angeles","state":"CA","postalCode":"90019","name":"Target"}},{"type":"Feature","geometry":{"type":"Point","coordinates":[-118.44386619597739,34.062923445512716]},"properties":{"address":"10861 Weyburn Ave","city":"Los Angeles","state":"CA","postalCode":"90024","name":"Target"}},{"type":"Feature","geometry":{"type":"Point","coordinates":[-118.07019031396854,34.074566841209716]},"properties":{"address":"3600 Rosemead Blvd","city":"Rosemead","state":"CA","postalCode":"91770","name":"Target"}},{"type":"Feature","geometry":{"type":"Point","coordinates":[-118.35717759333112,33.869069327301105]},"properties":{"address":"1601 Kingsdale Ave","city":"Redondo Beach","state":"CA","postalCode":"90278","name":"Target"}},{"type":"Feature","geometry":{"type":"Point","coordinates":[-118.085754,34.1471]},"properties":{"address":"3121 E Colorado Blvd","city":"Pasadena","state":"CA","postalCode":"91107","name":"Target"}},{"type":"Feature","geometry":{"type":"Point","coordinates":[-118.37164,34.18816]},"properties":{"address":"11051 Victory Blvd","city":"North Hollywood","state":"CA","postalCode":"91606","name":"Target"}},{"type":"Feature","geometry":{"type":"Point","coordinates":[-118.34585982328746,33.82639227740634]},"properties":{"address":"3433 Sepulveda Blvd","city":"Torrance","state":"CA","postalCode":"90505","name":"Target"}},{"type":"Feature","geometry":{"type":"Point","coordinates":[-118.26666538446868,34.06925736910445]},"properties":{"address":"330 Westlake Avenue, Unit 500","city":"Los Angeles","state":"CA","postalCode":"90026","name":"Target"}},{"type":"Feature","geometry":{"type":"Point","coordinates":[-118.350709,33.901493]},"properties":{"address":"14310 Hawthorne Blvd","city":"Lawndale","state":"CA","postalCode":"90260","name":"Target"}},{"type":"Feature","geometry":{"type":"Point","coordinates":[-118.33295428522361,33.94811592038368]},"properties":{"address":"3471 W Century Blvd","city":"Inglewood","state":"CA","postalCode":"90303","name":"Target"}},{"type":"Feature","geometry":{"type":"Point","coordinates":[-118.16777714125386,33.948234912197286]},"properties":{"address":"5700 Firestone Blvd","city":"South Gate","state":"CA","postalCode":"90280","name":"Target"}},{"type":"Feature","geometry":{"type":"Point","coordinates":[-118.15082838922434,34.017922639027645]},"properties":{"address":"5600 Whittier Blvd","city":"Commerce","state":"CA","postalCode":"90022","name":"Target"}},{"type":"Feature","geometry":{"type":"Point","coordinates":[-118.28565581688012,34.06357775392312]},"properties":{"address":"620 S Virgil Ave Ste 100","city":"Los Angeles","state":"CA","postalCode":"90005","name":"Target"}},{"type":"Feature","geometry":{"type":"Point","coordinates":[-118.1401639150684,33.852756760396474]},"properties":{"address":"141 Lakewood Center Mall","city":"Lakewood","state":"CA","postalCode":"90712","name":"Target"}}]},"Seattle, WA":{"type":"FeatureCollection","features":[{"type":"Feature","geometry":{"type":"Point","coordinates":[-122.33859,47.60856]},"properties":{"address":"1401 2nd Ave","city":"Seattle","state":"WA","postalCode":"98101","name":"Target"}},{"type":"Feature","geometry":{"type":"Point","coordinates":[-122.32467427961184,47.70913140722577]},"properties":{"address":"302 NE Northgate Way","city":"Seattle","state":"WA","postalCode":"98125","name":"Target"}},{"type":"Feature","geometry":{"type":"Point","coordinates":[-122.37578300000001,47.668959]},"properties":{"address":"1448 NW Market St","city":"Seattle","state":"WA","postalCode":"98107","name":"Target"}},{"type":"Feature","geometry":{"type":"Point","coordinates":[-122.36868927517237,47.522043471793786]},"properties":{"address":"2800 SW Barton St","city":"Seattle","state":"WA","postalCode":"98126","name":"Target"}},{"type":"Feature","geometry":{"type":"Point","coordinates":[-122.20045502008712,47.4966527373479]},"properties":{"address":"1215 N Landing Way","city":"Renton","state":"WA","postalCode":"98057","name":"Target"}},{"type":"Feature","geometry":{"type":"Point","coordinates":[-122.17299190452785,47.574091322769476]},"properties":{"address":"4053 Factoria Square Mall SE","city":"Bellevue","state":"WA","postalCode":"98006","name":"Target"}},{"type":"Feature","geometry":{"type":"Point","coordinates":[-122.05075435168034,47.54218775172781]},"properties":{"address":"755 NW Gilman Blvd","city":"Issaquah","state":"WA","postalCode":"98027","name":"Target"}},{"type":"Feature","geometry":{"type":"Point","coordinates":[-122.10383893920682,47.672634754015796]},"properties":{"address":"17700 NE 76th St","city":"Redmond","state":"WA","postalCode":"98052","name":"Target"}},{"type":"Feature","geometry":{"type":"Point","coordinates":[-122.18499,47.61251]},"properties":{"address":"272 116th Ave NE","city":"Bellevue","state":"WA","postalCode":"98004","name":"Target Bellevue"}},{"type":"Feature","geometry":{"type":"Point","coordinates":[-122.25826592002092,47.4549754032197]},"properties":{"address":"301 Strander Blvd","city":"Tukwila","state":"WA","postalCode":"98188","name":"Target"}},{"type":"Feature","geometry":{"type":"Point","coordinates":[-122.15427508477582,47.75838911773189]},"properties":{"address":"13950 NE 178th Pl","city":"Woodinville","state":"WA","postalCode":"98072","name":"Target"}},{"type":"Feature","geometry":{"type":"Point","coordinates":[-122.26646924919554,47.83279629441876]},"properties":{"address":"18305 Alderwood Mall Pkwy","city":"Lynnwood","state":"WA","postalCode":"98037","name":"Target"}},{"type":"Feature","geometry":{"type":"Point","coordinates":[-122.69419189422052,47.65796729239782]},"properties":{"address":"3201 NW Randall Way","city":"Silverdale","state":"WA","postalCode":"98383","name":"Target"}},{"type":"Feature","geometry":{"type":"Point","coordinates":[-122.20303340569771,47.36626993476572]},"properties":{"address":"26301 104th Ave SE","city":"Kent","state":"WA","postalCode":"98030","name":"Target"}},{"type":"Feature","geometry":{"type":"Point","coordinates":[-122.607339,47.360864]},"properties":{"address":"11400 51st Ave NW","city":"Gig Harbor","state":"WA","postalCode":"98332","name":"Target"}},{"type":"Feature","geometry":{"type":"Point","coordinates":[-122.22690798374333,47.910085324495256]},"properties":{"address":"405 SE Everett Mall Way","city":"Everett","state":"WA","postalCode":"98208","name":"Target"}},{"type":"Feature","geometry":{"type":"Point","coordinates":[-122.305539,47.313592]},"properties":{"address":"2201 S Commons","city":"Federal Way","state":"WA","postalCode":"98003","name":"Target"}},{"type":"Feature","geometry":{"type":"Point","coordinates":[-122.21087646484375,47.615638732910156]},"properties":{"address":"116th Ave NE and NE 4th St","city":"Bellevue","state":"WA","postalCode":"98004","name":"Target"}},{"type":"Feature","geometry":{"type":"Point","coordinates":[-122.479943,47.237213]},"properties":{"address":"3320 S 23rd St","city":"Tacoma","state":"WA","postalCode":"98405","name":"Target"}},{"type":"Feature","geometry":{"type":"Point","coordinates":[-122.29525356125173,47.1595174788144]},"properties":{"address":"3310 S Meridian","city":"Puyallup","state":"WA","postalCode":"98373","name":"Target"}},{"type":"Feature","geometry":{"type":"Point","coordinates":[-122.104239,47.672452]},"properties":{"city":"Redmond","state":"WA","postalCode":"98052","name":"Target Drive Up"}},{"type":"Feature","geometry":{"type":"Point","coordinates":[-122.10184956983622,47.99873385922447]},"properties":{"address":"9601 Market Pl","city":"Lake Stevens","state":"WA","postalCode":"98258","name":"Target"}},{"type":"Feature","geometry":{"type":"Point","coordinates":[-122.17178125129034,47.17216244147112]},"properties":{"address":"9400 192nd Ave E","city":"Bonney Lake","state":"WA","postalCode":"98391","name":"Target"}},{"type":"Feature","geometry":{"type":"Point","coordinates":[-122.29224776408014,47.11343396975212]},"properties":{"address":"10302 156th St E","city":"Puyallup","state":"WA","postalCode":"98374","name":"Target"}}]},"San Francisco, CA":{"type":"FeatureCollection","features":[{"type":"Feature","geometry":{"type":"Point","coordinates":[-122.4040854748682,37.78455453972355]},"properties":{"address":"789 Mission St","city":"San Francisco","state":"CA","postalCode":"94103","name":"Target"}},{"type":"Feature","geometry":{"type":"Point","coordinates":[-122.44680208992513,37.78186832392801]},"properties":{"address":"2675 Geary Blvd","city":"San Francisco","state":"CA","postalCode":"94118","name":"Target"}},{"type":"Feature","geometry":{"type":"Point","coordinates":[-122.416046,37.770058]},"properties":{"address":"1690 Folsom St","city":"San Francisco","state":"CA","postalCode":"94103","name":"Target"}},{"type":"Feature","geometry":{"type":"Point","coordinates":[-122.40086,37.79107]},"properties":{"address":"225 Bush St","city":"San Francisco","state":"CA","postalCode":"94104","name":"Target"}},{"type":"Feature","geometry":{"type":"Point","coordinates":[-122.4767949289698,37.726566974748366]},"properties":{"address":"233 Winston Dr","city":"San Francisco","state":"CA","postalCode":"94132","name":"Target"}},{"type":"Feature","geometry":{"type":"Point","coordinates":[-122.470183968544,37.6706372505802]},"properties":{"address":"133 Serramonte Ctr","city":"Daly City","state":"CA","postalCode":"94015","name":"Target"}},{"type":"Feature","geometry":{"type":"Point","coordinates":[-122.4642387,37.6738414]},"properties":{"address":"5001 Junipero Serra Blvd","city":"Colma","state":"CA","postalCode":"94014","name":"Target"}},{"type":"Feature","geometry":{"type":"Point","coordinates":[-122.28339902170933,37.55899620667942]},"properties":{"address":"2220 Bridgepointe Pkwy","city":"San Mateo","state":"CA","postalCode":"94404","name":"Target"}},{"type":"Feature","geometry":{"type":"Point","coordinates":[-122.28988441450258,37.828414750262674]},"properties":{"address":"1555 40th St","city":"Emeryville","state":"CA","postalCode":"94608","name":"Target"}},{"type":"Feature","geometry":{"type":"Point","coordinates":[-122.41686701774597,37.63661367282738]},"properties":{"address":"1150 El Camino Real","city":"San Bruno","state":"CA","postalCode":"94066","name":"Target"}},{"type":"Feature","geometry":{"type":"Point","coordinates":[-122.3066769,37.8827713]},"properties":{"address":"1057 Eastshore Hwy","city":"Albany","state":"CA","postalCode":"94710","name":"Target"}},{"type":"Feature","geometry":{"type":"Point","coordinates":[-122.06448314363938,37.90494366253669]},"properties":{"address":"1871 N Main St","city":"Walnut Creek","state":"CA","postalCode":"94596","name":"Target"}},{"type":"Feature","geometry":{"type":"Point","coordinates":[-122.1208101511,37.666267849659]},"properties":{"address":"19661 Hesperian Blvd","city":"Hayward","state":"CA","postalCode":"94541","name":"Target"}},{"type":"Feature","geometry":{"type":"Point","coordinates":[-122.49058649096541,37.955214986894305]},"properties":{"address":"125 Shoreline Pkwy","city":"San Rafael","state":"CA","postalCode":"94901","name":"Target"}},{"type":"Feature","geometry":{"type":"Point","coordinates":[-122.26781486755723,37.869602281952496]},"properties":{"address":"2187 Shattuck Ave","city":"Berkeley","state":"CA","postalCode":"94704","name":"Target"}},{"type":"Feature","geometry":{"type":"Point","coordinates":[-122.32822114838957,37.93201450022087]},"properties":{"address":"4500 Macdonald Ave","city":"Richmond","state":"CA","postalCode":"94805","name":"Target"}},{"type":"Feature","geometry":{"type":"Point","coordinates":[-122.12699398111121,37.6996748269991]},"properties":{"address":"15555 E 14th St Ste 400","city":"San Leandro","state":"CA","postalCode":"94578","name":"Target"}},{"type":"Feature","geometry":{"type":"Point","coordinates":[-122.21756139933655,37.47526887590656]},"properties":{"address":"2485 El Camino Real","city":"Redwood City","state":"CA","postalCode":"94063","name":"Target"}},{"type":"Feature","geometry":{"type":"Point","coordinates":[-122.30967129453705,37.987558255112006]},"properties":{"address":"1400 Fitzgerald Dr","city":"Pinole","state":"CA","postalCode":"94564","name":"Target"}},{"type":"Feature","geometry":{"type":"Point","coordinates":[-121.96378031995927,37.762213797033766]},"properties":{"address":"2610 Bishop Dr","city":"San Ramon","state":"CA","postalCode":"94583","name":"Target"}},{"type":"Feature","geometry":{"type":"Point","coordinates":[-122.27949500083922,37.788751207176894]},"properties":{"address":"2700 5th St","city":"Alameda","state":"CA","postalCode":"94501","name":"Target"}},{"type":"Feature","geometry":{"type":"Point","coordinates":[-122.48288,37.70032]},"properties":{"address":"100 Westlake Ctr","city":"Daly City","state":"CA","postalCode":"94015","name":"Target"}},{"type":"Feature","geometry":{"type":"Point","coordinates":[-121.93133347534099,37.70654816174644]},"properties":{"address":"7200 Amador Plaza Rd","city":"Dublin","state":"CA","postalCode":"94568","name":"Target"}},{"type":"Feature","geometry":{"type":"Point","coordinates":[-122.06685550619079,37.97723793799742]},"properties":{"address":"560 Contra Costa Blvd","city":"Pleasant Hill","state":"CA","postalCode":"94523","name":"Target"}},{"type":"Feature","geometry":{"type":"Point","coordinates":[-121.85314980607954,37.70335115005446]},"properties":{"address":"2800 Dublin Blvd","city":"Dublin","state":"CA","postalCode":"94568","name":"Target"}},{"type":"Feature","geometry":{"type":"Point","coordinates":[-122.26406,37.815643]},"properties":{"address":"2650 Broadway","city":"Oakland","state":"CA","postalCode":"94612","name":"Target"}},{"type":"Feature","geometry":{"type":"Point","coordinates":[-122.5109497076704,37.87377883110619]},"properties":{"address":"180 Donahue St","city":"Sausalito","state":"CA","postalCode":"94965","name":"Target"}},{"type":"Feature","geometry":{"type":"Point","coordinates":[-122.55303263648969,38.08988925396842]},"properties":{"address":"200 Vintage Way","city":"Novato","state":"CA","postalCode":"94945","name":"Target"}},{"type":"Feature","geometry":{"type":"Point","coordinates":[-122.46143608503341,37.72511701118615]},"properties":{"address":"1830 Ocean Ave","city":"San Francisco","state":"CA","postalCode":"94112","name":"Target"}},{"type":"Feature","geometry":{"type":"Point","coordinates":[-122.2839479513902,37.869851863157685]},"properties":{"address":"1414 University Ave","city":"Berkeley","state":"CA","postalCode":"94702","name":"Target"}}]},"San Diego, CA":{"type":"FeatureCollection","features":[{"type":"Feature","geometry":{"type":"Point","coordinates":[-117.1506471235297,32.767771177347356]},"properties":{"address":"1288 Camino del Rio N","city":"San Diego","state":"CA","postalCode":"92108","name":"Target"}},{"type":"Feature","geometry":{"type":"Point","coordinates":[-117.12904,32.72686]},"properties":{"address":"3030 Grape St","city":"San Diego","state":"CA","postalCode":"92102","name":"Target"}},{"type":"Feature","geometry":{"type":"Point","coordinates":[-117.20951015135078,32.75158934239277]},"properties":{"address":"3245 Sports Arena Blvd","city":"San Diego","state":"CA","postalCode":"92110","name":"Target"}},{"type":"Feature","geometry":{"type":"Point","coordinates":[-117.1784939,32.8221521]},"properties":{"address":"5680 Balboa Ave","city":"San Diego","state":"CA","postalCode":"92111","name":"Target"}},{"type":"Feature","geometry":{"type":"Point","coordinates":[-117.06516371921292,32.65433871039895]},"properties":{"address":"3060 Plaza Bonita Rd","city":"National City","state":"CA","postalCode":"91950","name":"Target"}},{"type":"Feature","geometry":{"type":"Point","coordinates":[-117.151024,32.816364]},"properties":{"address":"8001 Othello Ave","city":"San Diego","state":"CA","postalCode":"92111","name":"Target"}},{"type":"Feature","geometry":{"type":"Point","coordinates":[-117.14632926469044,32.91059026218971]},"properties":{"address":"8251 Mira Mesa Blvd","city":"San Diego","state":"CA","postalCode":"92126","name":"Target"}},{"type":"Feature","geometry":{"type":"Point","coordinates":[-116.9686999,32.6509609]},"properties":{"address":"910 Eastlake Pkwy","city":"Chula Vista","state":"CA","postalCode":"91914","name":"Target"}},{"type":"Feature","geometry":{"type":"Point","coordinates":[-116.98236018419266,32.842425747430134]},"properties":{"address":"9846 Mission Gorge Rd","city":"Santee","state":"CA","postalCode":"92071","name":"Target"}},{"type":"Feature","geometry":{"type":"Point","coordinates":[-117.05544769763947,32.74093784301715]},"properties":{"address":"3424 College Ave","city":"San Diego","state":"CA","postalCode":"92115","name":"Target"}},{"type":"Feature","geometry":{"type":"Point","coordinates":[-117.01254838013513,32.779261394169545]},"properties":{"address":"5500 Grossmont Ctr Dr","city":"La Mesa","state":"CA","postalCode":"91942","name":"Target"}},{"type":"Feature","geometry":{"type":"Point","coordinates":[-117.08072588393543,32.60457555458957]},"properties":{"address":"1240 Broadway","city":"Chula Vista","state":"CA","postalCode":"91911","name":"Target"}},{"type":"Feature","geometry":{"type":"Point","coordinates":[-117.128914,32.748264]},"properties":{"address":"3029 University Ave","city":"San Diego","state":"CA","postalCode":"92104","name":"Target"}},{"type":"Feature","geometry":{"type":"Point","coordinates":[-117.0606264427304,32.98064701105914]},"properties":{"address":"14823 Pomerado Rd","city":"Poway","state":"CA","postalCode":"92064","name":"Target"}},{"type":"Feature","geometry":{"type":"Point","coordinates":[-116.93847656250001,32.73814026995746]},"properties":{"address":"2911 Jamacha Rd","city":"El Cajon","state":"CA","postalCode":"92019","name":"Target"}},{"type":"Feature","geometry":{"type":"Point","coordinates":[-116.959,32.809273]},"properties":{"address":"250 Broadway","city":"El Cajon","state":"CA","postalCode":"92021","name":"Target"}},{"type":"Feature","geometry":{"type":"Point","coordinates":[-117.0994952638726,33.11320700007452]},"properties":{"address":"1280 Auto Park Way","city":"Escondido","state":"CA","postalCode":"92029","name":"Target"}},{"type":"Feature","geometry":{"type":"Point","coordinates":[-117.010933,32.713365]},"properties":{"address":"935 Sweetwater Rd Ste 101","city":"Spring Valley","state":"CA","postalCode":"91977","name":"Target"}},{"type":"Feature","geometry":{"type":"Point","coordinates":[-117.06539003599613,33.069953126652244]},"properties":{"address":"280 E Via Rancho Pkwy","city":"Escondido","state":"CA","postalCode":"92025","name":"Target"}},{"type":"Feature","geometry":{"type":"Point","coordinates":[-117.26523701970194,33.06322800718357]},"properties":{"address":"1010 N El Camino Real","city":"Encinitas","state":"CA","postalCode":"92024","name":"Target"}},{"type":"Feature","geometry":{"type":"Point","coordinates":[-117.23736365685362,32.80035872565902]},"properties":{"address":"Highland Ave","city":"National City","state":"CA","postalCode":"92109","name":"Target"}},{"type":"Feature","geometry":{"type":"Point","coordinates":[-117.2426528930664,32.880184173583984]},"properties":{"address":"9500 Gilman Dr","city":"La Jolla","state":"CA","postalCode":"92093","name":"Target"}},{"type":"Feature","geometry":{"type":"Point","coordinates":[-116.91899871826172,32.81305694580078]},"properties":{"address":"1710 E Main St","city":"El Cajon","state":"CA","postalCode":"92021","name":"Target"}},{"type":"Feature","geometry":{"type":"Point","coordinates":[-117.12553159309418,33.020142975036485]},"properties":{"address":"17170 Camino Del Sur","city":"San Diego","state":"CA","postalCode":"92127","name":"Target"}}]}},"Walmart":{"Houston, TX":{"type":"FeatureCollection","features":[{"type":"Feature","geometry":{"type":"Point","coordinates":[-95.40112738315426,29.772820334710868]},"properties":{"address":"111 Yale St","city":"Houston","state":"TX","postalCode":"77007","name":"Walmart Supercenter"}},{"type":"Feature","geometry":{"type":"Point","coordinates":[-95.46533072207033,29.72310341009565]},"properties":{"address":"5405 South Rice Avenue","city":"Houston","state":"TX","postalCode":"77081","name":"Walmart Supercenter"}},{"type":"Feature","geometry":{"type":"Point","coordinates":[-95.46555544737775,29.788781050993975]},"properties":{"address":"1118 Silber Rd","city":"Houston","state":"TX","postalCode":"77055","name":"Walmart Supercenter"}},{"type":"Feature","geometry":{"type":"Point","coordinates":[-95.31322587435099,29.716042492582066]},"properties":{"address":"2391 S Wayside Dr","city":"Houston","state":"TX","postalCode":"77023","name":"Walmart Supercenter"}},{"type":"Feature","geometry":{"type":"Point","coordinates":[-95.5121431387531,29.735564403455268]},"properties":{"address":"2727 Dunvale Rd","city":"Houston","state":"TX","postalCode":"77063","name":"Walmart Supercenter"}},{"type":"Feature","geometry":{"type":"Point","coordinates":[-95.45756722086915,29.67645996907825]},"properties":{"address":"9555 S Post Oak Rd","city":"Houston","state":"TX","postalCode":"77096","name":"Walmart"}},{"type":"Feature","geometry":{"type":"Point","coordinates":[-95.37763596,29.82990382]},"properties":{"address":"4412 North Fwy","city":"Houston","state":"TX","postalCode":"77022","name":"Walmart Supercenter"}},{"type":"Feature","geometry":{"type":"Point","coordinates":[-95.50881927609771,29.853454008089315]},"properties":{"address":"13484 Northwest Fwy","city":"Houston","state":"TX","postalCode":"77040","name":"Walmart Supercenter"}},{"type":"Feature","geometry":{"type":"Point","coordinates":[-95.59106644520517,29.73339441721616]},"properties":{"address":"2700 S Kirkwood Rd","city":"Houston","state":"TX","postalCode":"77077","name":"Walmart Supercenter"}},{"type":"Feature","geometry":{"type":"Point","coordinates":[-95.16491348283272,29.806578322602665]},"properties":{"address":"5655 E Sam Houston Pkwy N","city":"Houston","state":"TX","postalCode":"77015","name":"Walmart Supercenter"}},{"type":"Feature","geometry":{"type":"Point","coordinates":[-95.4150255804732,29.918278276488756]},"properties":{"address":"10411 N Freeway 45","city":"Houston","state":"TX","postalCode":"77037","name":"Walmart Supercenter"}},{"type":"Feature","geometry":{"type":"Point","coordinates":[-95.21000862,29.69293658]},"properties":{"address":"1107 Shaver St","city":"Pasadena","state":"TX","postalCode":"77506","name":"Walmart Supercenter"}},{"type":"Feature","geometry":{"type":"Point","coordinates":[-95.25252556154366,29.93658512456824]},"properties":{"address":"9235 N Sam Houston Pkwy E","city":"Humble","state":"TX","postalCode":"77396","name":"Walmart Supercenter"}},{"type":"Feature","geometry":{"type":"Point","coordinates":[-95.38275699299078,29.55768450074555]},"properties":{"address":"10505 Broadway St","city":"Pearland","state":"TX","postalCode":"77584","name":"Walmart Supercenter"}},{"type":"Feature","geometry":{"type":"Point","coordinates":[-95.23732910946643,29.630612128021674]},"properties":{"address":"9598 Rowlett Rd","city":"Houston","state":"TX","postalCode":"77075","name":"Walmart Supercenter"}},{"type":"Feature","geometry":{"type":"Point","coordinates":[-95.56479610078546,29.792863755499617]},"properties":{"address":"10750 Westview Dr","city":"Houston","state":"TX","postalCode":"77043","name":"Walmart Supercenter"}},{"type":"Feature","geometry":{"type":"Point","coordinates":[-95.16144458386283,29.646880262801737]},"properties":{"address":"5200 Fairmont Pkwy","city":"Pasadena","state":"TX","postalCode":"77505","name":"Walmart Supercenter"}},{"type":"Feature","geometry":{"type":"Point","coordinates":[-95.57317591453138,29.643714752761518]},"properties":{"address":"11210 W Airport Blvd","city":"Stafford","state":"TX","postalCode":"77477","name":"Walmart Supercenter"}},{"type":"Feature","geometry":{"type":"Point","coordinates":[-95.17718780353536,29.768585629243262]},"properties":{"address":"13750 East Fwy","city":"Houston","state":"TX","postalCode":"77015","name":"Walmart Supercenter"}},{"type":"Feature","geometry":{"type":"Point","coordinates":[-95.56092739,29.67973851]},"properties":{"address":"9460 W Sam Houston Pkwy S","city":"Houston","state":"TX","postalCode":"77099","name":"Walmart Supercenter"}},{"type":"Feature","geometry":{"type":"Point","coordinates":[-95.10005563760843,29.66670784225446]},"properties":{"address":"9025 Spencer Hwy","city":"La Porte","state":"TX","postalCode":"77571","name":"Walmart Supercenter"}},{"type":"Feature","geometry":{"type":"Point","coordinates":[-95.1592511893669,29.55204985699984]},"properties":{"address":"150 W El Dorado Blvd","city":"Friendswood","state":"TX","postalCode":"77546","name":"Walmart Supercenter"}},{"type":"Feature","geometry":{"type":"Point","coordinates":[-95.48694411,29.9136671]},"properties":{"address":"13003 Tomball Pkwy","city":"Houston","state":"TX","postalCode":"77086","name":"Walmart Supercenter"}},{"type":"Feature","geometry":{"type":"Point","coordinates":[-95.56848283257197,29.57374229227293]},"properties":{"address":"5501 Highway 6","city":"Missouri City","state":"TX","postalCode":"77459","name":"Walmart Supercenter"}},{"type":"Feature","geometry":{"type":"Point","coordinates":[-95.28345903068073,29.57324813490565]},"properties":{"address":"1919 N Main St","city":"Pearland","state":"TX","postalCode":"77581","name":"Walmart Supercenter"}},{"type":"Feature","geometry":{"type":"Point","coordinates":[-95.17655554653733,29.996114023724356]},"properties":{"address":"6626 Fm 1960 Rd E","city":"Humble","state":"TX","postalCode":"77346","name":"Walmart Supercenter"}},{"type":"Feature","geometry":{"type":"Point","coordinates":[-95.64682245,29.72117239]},"properties":{"address":"3506 Highway 6 S","city":"Houston","state":"TX","postalCode":"77082","name":"Walmart Supercenter"}},{"type":"Feature","geometry":{"type":"Point","coordinates":[-95.23578376825981,29.54615285320242]},"properties":{"address":"1710 Broadway St","city":"Pearland","state":"TX","postalCode":"77581","name":"Walmart Supercenter"}},{"type":"Feature","geometry":{"type":"Point","coordinates":[-95.4841789313153,29.99779059876886]},"properties":{"address":"3450 Fm 1960 Rd W","city":"Houston","state":"TX","postalCode":"77068","name":"Walmart Supercenter"}},{"type":"Feature","geometry":{"type":"Point","coordinates":[-95.64474213777241,29.613363632572202]},"properties":{"address":"345 Highway 6","city":"Sugar Land","state":"TX","postalCode":"77478","name":"Walmart Supercenter"}}]},"Dallas, TX":{"type":"FeatureCollection","features":[{"type":"Feature","geometry":{"type":"Point","coordinates":[-96.84037287928103,32.92200057459249]},"properties":{"address":"4122 Lyndon B Johnson Fwy","city":"Dallas","state":"TX","postalCode":"75244","name":"Walmart"}},{"type":"Feature","geometry":{"type":"Point","coordinates":[-96.96745158435134,32.920264634529346]},"properties":{"address":"1635 Market Place Blvd.","city":"Irving","state":"TX","postalCode":"75063","name":"Walmart"}},{"type":"Feature","geometry":{"type":"Point","coordinates":[-96.82546315702143,32.68402522028972]},"properties":{"address":"200 Short Blvd","city":"Dallas","state":"TX","postalCode":"75232","name":"Walmart Supercenter"}},{"type":"Feature","geometry":{"type":"Point","coordinates":[-96.89746644699069,32.76307446206835]},"properties":{"address":"1521 N Cockrell Hill Rd","city":"Dallas","state":"TX","postalCode":"75211","name":"Walmart Supercenter"}},{"type":"Feature","geometry":{"type":"Point","coordinates":[-96.68958226181532,32.79429794991151]},"properties":{"address":"7401 Samuell Blvd","city":"Dallas","state":"TX","postalCode":"75228","name":"Walmart Supercenter"}},{"type":"Feature","geometry":{"type":"Point","coordinates":[-96.75463064035314,32.86293076307544]},"properties":{"address":"6185 Retail Rd","city":"Dallas","state":"TX","postalCode":"75231","name":"Walmart Supercenter"}},{"type":"Feature","geometry":{"type":"Point","coordinates":[-97.02103000760299,32.707051645239986]},"properties":{"address":"Arkansas & 161","city":"Grand Prairie","state":"TX","postalCode":"75052","name":"Walmart"}},{"type":"Feature","geometry":{"type":"Point","coordinates":[-96.73896139509608,32.910601062165554]},"properties":{"address":"9301 Forest Ln","city":"Dallas","state":"TX","postalCode":"75243","name":"Walmart Supercenter"}},{"type":"Feature","geometry":{"type":"Point","coordinates":[-96.81673765,32.95895865]},"properties":{"address":"15220 Montfort Rd","city":"Dallas","state":"TX","postalCode":"75248","name":"Walmart Supercenter"}},{"type":"Feature","geometry":{"type":"Point","coordinates":[-96.77026558284983,32.963189455814366]},"properties":{"address":"15757 Arapaho","city":"Dallas","state":"TX","name":"Walmart"}},{"type":"Feature","geometry":{"type":"Point","coordinates":[-96.8570926328939,32.86217048584277]},"properties":{"address":"9410 Webb Chapel Rd","city":"Dallas","state":"TX","postalCode":"75220","name":"Walmart Supercenter"}},{"type":"Feature","geometry":{"type":"Point","coordinates":[-96.81973149680242,32.59255020787606]},"properties":{"address":"150 N Interstate 35 E","city":"Lancaster","state":"TX","postalCode":"75146","name":"Walmart Supercenter"}},{"type":"Feature","geometry":{"type":"Point","coordinates":[-96.82831693008892,33.02470740759119]},"properties":{"address":"1700 Dallas Pkwy","city":"Plano","state":"TX","postalCode":"75093","name":"Walmart Supercenter"}},{"type":"Feature","geometry":{"type":"Point","coordinates":[-96.6978412156676,33.05576551018384]},"properties":{"address":"6001 N Central Expy","city":"Plano","state":"TX","postalCode":"75023","name":"Walmart Supercenter"}},{"type":"Feature","geometry":{"type":"Point","coordinates":[-97.00621221157064,32.83537547322326]},"properties":{"address":"4100 W Airport Fwy","city":"Irving","state":"TX","postalCode":"75062","name":"Walmart Supercenter"}},{"type":"Feature","geometry":{"type":"Point","coordinates":[-96.87954387301255,32.59261199273748]},"properties":{"address":"951 W Belt Line Rd","city":"DeSoto","state":"TX","postalCode":"75115","name":"Walmart Supercenter"}},{"type":"Feature","geometry":{"type":"Point","coordinates":[-96.59885926584631,32.789266004718755]},"properties":{"address":"200 Us Highway 80 E","city":"Mesquite","state":"TX","postalCode":"75149","name":"Walmart Supercenter"}},{"type":"Feature","geometry":{"type":"Point","coordinates":[-96.77143381518187,33.00447022692925]},"properties":{"address":"425 Coit Rd","city":"Plano","state":"TX","postalCode":"75075","name":"Walmart Supercenter"}},{"type":"Feature","geometry":{"type":"Point","coordinates":[-96.65230183580155,32.8628133318584]},"properties":{"address":"1801 Marketplace Dr","city":"Garland","state":"TX","postalCode":"75041","name":"Walmart Supercenter"}},{"type":"Feature","geometry":{"type":"Point","coordinates":[-96.8518049,32.9199438]},"properties":{"address":"4122 Lbj Freeway","city":"Dallas","state":"TX","postalCode":"75244","name":"Walmart Supercenter"}},{"type":"Feature","geometry":{"type":"Point","coordinates":[-96.59781544268044,32.842163105846595]},"properties":{"address":"555 W Interstate 30","city":"Garland","state":"TX","postalCode":"75043","name":"Walmart Supercenter"}},{"type":"Feature","geometry":{"type":"Point","coordinates":[-96.64293792404276,32.96235813696417]},"properties":{"address":"5302 N Garland Ave","city":"Garland","state":"TX","postalCode":"75040","name":"Walmart Supercenter"}},{"type":"Feature","geometry":{"type":"Point","coordinates":[-97.09511502769216,32.75078163022451]},"properties":{"address":"915 E Randol Mill Rd","city":"Arlington","state":"TX","postalCode":"76011","name":"Walmart Supercenter"}},{"type":"Feature","geometry":{"type":"Point","coordinates":[-96.99745368239623,33.009590839926865]},"properties":{"address":"190 E Round Grove Rd","city":"Lewisville","state":"TX","postalCode":"75067","name":"Walmart Supercenter"}},{"type":"Feature","geometry":{"type":"Point","coordinates":[-96.90558247416207,32.985437359081686]},"properties":{"address":"1213 E Trinity Mills Rd","city":"Carrollton","state":"TX","postalCode":"75006","name":"Walmart Supercenter"}},{"type":"Feature","geometry":{"type":"Point","coordinates":[-97.10604072,32.86422342]},"properties":{"address":"4101 Highway 121","city":"Bedford","state":"TX","postalCode":"76021","name":"Walmart Supercenter"}},{"type":"Feature","geometry":{"type":"Point","coordinates":[-97.03645348548889,32.673681547004364]},"properties":{"address":"2225 W Interstate 20","city":"Grand Prairie","state":"TX","postalCode":"75052","name":"Walmart Supercenter"}},{"type":"Feature","geometry":{"type":"Point","coordinates":[-96.8727159,32.64919825]},"properties":{"address":"3155 W Wheatland Rd","city":"Dallas","state":"TX","postalCode":"75237","name":"Walmart"}},{"type":"Feature","geometry":{"type":"Point","coordinates":[-96.94389172912557,32.64939610529123]},"properties":{"address":"7075 W Wheatland Rd","city":"Dallas","state":"TX","postalCode":"75249","name":"Walmart Supercenter"}},{"type":"Feature","geometry":{"type":"Point","coordinates":[-96.9467124751403,32.59782012436273]},"properties":{"address":"621 Uptown Blvd","city":"Cedar Hill","state":"TX","postalCode":"75104","name":"Walmart Supercenter"}}]},"Detroit, MI":{"type":"FeatureCollection","features":[{"type":"Feature","geometry":{"type":"Point","coordinates":[-83.01116675791185,42.27106451437372]},"properties":{"address":"3120 Dougall Ave","city":"Windsor","state":"ON","postalCode":"N9E 1S7","name":"Walmart"}},{"type":"Feature","geometry":{"type":"Point","coordinates":[-82.9434084892273,42.31460745603886]},"properties":{"address":"7100 Tecumseh Road E","city":"Windsor","state":"ON","postalCode":"N8T 1E6","name":"Walmart"}},{"type":"Feature","geometry":{"type":"Point","coordinates":[-83.20933114,42.33074184]},"properties":{"address":"5851 Mercury Dr","city":"Dearborn","state":"MI","postalCode":"48126","name":"Walmart Supercenter"}},{"type":"Feature","geometry":{"type":"Point","coordinates":[-83.33994163666095,42.43047700603418]},"properties":{"address":"29574 7 Mile Rd","city":"Livonia","state":"MI","postalCode":"48152","name":"Walmart"}},{"type":"Feature","geometry":{"type":"Point","coordinates":[-83.21046222598457,42.201673786436835]},"properties":{"address":"14900 Dix Toledo Rd","city":"Southgate","state":"MI","postalCode":"48195","name":"Walmart Supercenter"}},{"type":"Feature","geometry":{"type":"Point","coordinates":[-83.02667022003315,42.508222773805414]},"properties":{"address":"29176 Van Dyke Avenue","city":"Warren","state":"MI","postalCode":"48093","name":"Walmart Garden Center"}},{"type":"Feature","geometry":{"type":"Point","coordinates":[-83.03190255,42.53832481]},"properties":{"address":"33201 Van Dyke Ave","city":"Sterling Heights","state":"MI","postalCode":"48312","name":"Walmart Supercenter"}},{"type":"Feature","geometry":{"type":"Point","coordinates":[-83.26610201314267,42.253566220816396]},"properties":{"address":"7555 Telegraph Rd","city":"Taylor","state":"MI","postalCode":"48180","name":"Walmart Supercenter"}},{"type":"Feature","geometry":{"type":"Point","coordinates":[-83.22752953,42.13588154]},"properties":{"address":"23800 Allen Rd","city":"Woodhaven","state":"MI","postalCode":"48183","name":"Walmart Supercenter"}},{"type":"Feature","geometry":{"type":"Point","coordinates":[-83.17298380461577,42.544522951615065]},"properties":{"address":"2001 W Maple Rd","city":"Troy","state":"MI","postalCode":"48084","name":"Walmart Supercenter"}},{"type":"Feature","geometry":{"type":"Point","coordinates":[-82.92601910751999,42.508383428551035]},"properties":{"address":"28804 Gratiot Ave","city":"Roseville","state":"MI","postalCode":"48066","name":"Walmart Supercenter"}},{"type":"Feature","geometry":{"type":"Point","coordinates":[-83.07051945025742,42.31717841329541]},"properties":{"address":"Van dyke","city":"Sterling hgts","state":"MI","name":"Walmart supercenter"}},{"type":"Feature","geometry":{"type":"Point","coordinates":[-83.33643596068929,42.36682052436595]},"properties":{"address":"29555 Plymouth Rd","city":"Livonia","state":"MI","postalCode":"48150","name":"Walmart Supercenter"}},{"type":"Feature","geometry":{"type":"Point","coordinates":[-82.93770222886427,42.62635249009149]},"properties":{"address":"18400 Hall Rd","city":"Clinton Township","state":"MI","postalCode":"48038","name":"Walmart Supercenter"}},{"type":"Feature","geometry":{"type":"Point","coordinates":[-83.05492809651805,42.62180504352345]},"properties":{"address":"44575 Mound Rd","city":"Sterling Heights","state":"MI","postalCode":"48314","name":"Walmart"}},{"type":"Feature","geometry":{"type":"Point","coordinates":[-83.47094683699882,42.482048729039654]},"properties":{"address":"26090 Ingersol Dr","city":"Novi","state":"MI","postalCode":"48375","name":"Walmart Supercenter"}},{"type":"Feature","geometry":{"type":"Point","coordinates":[-82.85262186735427,42.63460142766286]},"properties":{"address":"45400 Marketplace Blvd","city":"Chesterfield","state":"MI","postalCode":"48051","name":"Walmart Supercenter"}},{"type":"Feature","geometry":{"type":"Point","coordinates":[-83.10950401557658,42.09672244920622]},"properties":{"address":"400 Sandwich St. S","city":"Amherstburg","state":"ON","postalCode":"N9V 3L4","name":"Walmart Supercentre"}},{"type":"Feature","geometry":{"type":"Point","coordinates":[-83.43051045741782,42.32508172261207]},"properties":{"address":"39500 Ford Rd","city":"Canton","state":"MI","postalCode":"48187","name":"Walmart Supercenter"}},{"type":"Feature","geometry":{"type":"Point","coordinates":[-83.19833156799518,42.64319279639434]},"properties":{"address":"2500 S Adams Rd","city":"Rochester Hills","state":"MI","postalCode":"48309","name":"Walmart Supercenter"}},{"type":"Feature","geometry":{"type":"Point","coordinates":[-83.18089645628017,42.43211689512657]},"properties":{"address":"92555 Plymouth","city":"Livonia","state":"MI","name":"Walmart"}},{"type":"Feature","geometry":{"type":"Point","coordinates":[-83.01041735046792,42.67289143950137]},"properties":{"address":"51450 Shelby Pkwy","city":"Shelby Township","state":"MI","postalCode":"48315","name":"Walmart Supercenter"}},{"type":"Feature","geometry":{"type":"Point","coordinates":[-83.48738650988712,42.22543682031495]},"properties":{"address":"10562 Belleville Rd","city":"Belleville","state":"MI","postalCode":"48111","name":"Walmart Supercenter"}},{"type":"Feature","geometry":{"type":"Point","coordinates":[-83.48900903821317,42.269014041757416]},"properties":{"address":"45555 Michigan Ave","city":"Canton","state":"MI","postalCode":"48188","name":"Walmart Supercenter"}},{"type":"Feature","geometry":{"type":"Point","coordinates":[-83.44225351645943,42.559169409005236]},"properties":{"address":"3301 Pontiac Trail Road","city":"Commerce Township","state":"MI","postalCode":"48390","name":"Walmart Supercenter"}},{"type":"Feature","geometry":{"type":"Point","coordinates":[-82.63902534660834,42.08893436788374]},"properties":{"address":"304 Erie Street South","city":"Leamington","state":"ON","postalCode":"N8H 3C5","name":"Walmart Supercenter, Leamington"}},{"type":"Feature","geometry":{"type":"Point","coordinates":[-83.39700222,41.95224552]},"properties":{"address":"2150 N Telegraph Rd","city":"Monroe","state":"MI","postalCode":"48162","name":"Walmart Supercenter"}}]},"Boston, MA":{"type":"FeatureCollection","features":[{"type":"Feature","geometry":{"type":"Point","coordinates":[-70.96160894027875,42.44920519828166]},"properties":{"address":"780 Lynnway","city":"Lynn","state":"MA","postalCode":"01905","name":"Walmart"}},{"type":"Feature","geometry":{"type":"Point","coordinates":[-71.02372860069163,42.472177296392594]},"properties":{"address":"770 Broadway","city":"Saugus","state":"MA","postalCode":"01906","name":"Walmart Supercenter"}},{"type":"Feature","geometry":{"type":"Point","coordinates":[-70.98666449044974,42.23651180002444]},"properties":{"address":"301 Falls Blvd","city":"Quincy","state":"MA","postalCode":"02169","name":"Walmart"}},{"type":"Feature","geometry":{"type":"Point","coordinates":[-70.93486318180533,42.49420480666104]},"properties":{"address":"450 Highland Ave","city":"Salem","state":"MA","postalCode":"01970","name":"Walmart"}},{"type":"Feature","geometry":{"type":"Point","coordinates":[-71.1125681518898,42.57050927575395]},"properties":{"address":"72 Main St","city":"North Reading","state":"MA","postalCode":"01864","name":"Walmart"}},{"type":"Feature","geometry":{"type":"Point","coordinates":[-71.39928065272282,42.300547665080046]},"properties":{"address":"121 Worcester Rd","city":"Framingham","state":"MA","postalCode":"01701","name":"Walmart"}},{"type":"Feature","geometry":{"type":"Point","coordinates":[-71.21468697375569,42.142437401921335]},"properties":{"address":"550 Providence Hwy","city":"Walpole","state":"MA","postalCode":"02081","name":"Walmart Supercenter"}},{"type":"Feature","geometry":{"type":"Point","coordinates":[-70.94472817484866,42.199574343136035]},"properties":{"address":"740 Middle St","city":"Weymouth","state":"MA","postalCode":"02188","name":"Walmart"}},{"type":"Feature","geometry":{"type":"Point","coordinates":[-70.9675284936481,42.55463531897802]},"properties":{"address":"55 Brooksby Village Way","city":"Danvers","state":"MA","postalCode":"01923","name":"Walmart"}},{"type":"Feature","geometry":{"type":"Point","coordinates":[-71.05661462321501,42.098441423671716]},"properties":{"address":"700 Oak St","city":"Brockton","state":"MA","postalCode":"02301","name":"Walmart"}},{"type":"Feature","geometry":{"type":"Point","coordinates":[-71.03082732996947,42.121297164867414]},"properties":{"address":"30 Memorial Dr","city":"Avon","state":"MA","postalCode":"02322","name":"Walmart Supercenter"}},{"type":"Feature","geometry":{"type":"Point","coordinates":[-71.3609492201851,42.622866531594944]},"properties":{"address":"66 Parkhurst Rd","city":"Chelmsford","state":"MA","postalCode":"01824","name":"Walmart"}},{"type":"Feature","geometry":{"type":"Point","coordinates":[-70.96886285822173,42.09564406578198]},"properties":{"address":"777 Brockton Ave","city":"Abington","state":"MA","postalCode":"02351","name":"Walmart"}},{"type":"Feature","geometry":{"type":"Point","coordinates":[-71.26877466018871,42.62296601655967]},"properties":{"address":"333 Main St","city":"Tewksbury","state":"MA","postalCode":"01876","name":"Walmart Supercenter"}},{"type":"Feature","geometry":{"type":"Point","coordinates":[-71.46454437680198,42.11592951199131]},"properties":{"address":"250 Hartford Ave","city":"Bellingham","state":"MA","postalCode":"02019","name":"Walmart"}},{"type":"Feature","geometry":{"type":"Point","coordinates":[-71.55960338853,42.37321540407079]},"properties":{"address":"280 Washington St","city":"Hudson","state":"MA","postalCode":"01749","name":"Walmart Supercenter"}},{"type":"Feature","geometry":{"type":"Point","coordinates":[-71.1649968960664,42.74282628728353]},"properties":{"address":"70 Pleasant Valley St","city":"Methuen","state":"MA","postalCode":"01844","name":"Walmart"}},{"type":"Feature","geometry":{"type":"Point","coordinates":[-70.84577772268052,41.99710385941959]},"properties":{"address":"295 Plymouth St","city":"Halifax","state":"MA","postalCode":"02338","name":"Walmart Supercenter"}},{"type":"Feature","geometry":{"type":"Point","coordinates":[-71.03297215096755,41.90390770534168]},"properties":{"address":"36 Paramount Dr","city":"Raynham","state":"MA","postalCode":"02767","name":"Walmart Supercenter"}},{"type":"Feature","geometry":{"type":"Point","coordinates":[-71.0853715218714,41.93500049016614]},"properties":{"address":"160 Broadway","city":"Raynham","state":"MA","postalCode":"02767","name":"Walmart Supercenter"}}]},"New York, NY":{"type":"FeatureCollection","features":[{"type":"Feature","geometry":{"type":"Point","coordinates":[-74.04234962462563,40.792635374976186]},"properties":{"address":"400 Park Pl","city":"Secaucus","state":"NJ","postalCode":"07094","name":"Walmart Supercenter"}},{"type":"Feature","geometry":{"type":"Point","coordinates":[-74.06250338193419,40.862474182467494]},"properties":{"address":"1 Teterboro Landing Drive","city":"Teterboro","state":"NJ","postalCode":"07608","name":"Walmart Supercenter"}},{"type":"Feature","geometry":{"type":"Point","coordinates":[-74.01354209,40.81342911]},"properties":{"address":"2100 88th St","city":"North Bergen","state":"NJ","postalCode":"07047","name":"Walmart Supercenter"}},{"type":"Feature","geometry":{"type":"Point","coordinates":[-74.13562,40.749548]},"properties":{"address":"150 Harrison Ave","city":"Kearny","state":"NJ","postalCode":"07032","name":"Walmart Supercenter"}},{"type":"Feature","geometry":{"type":"Point","coordinates":[-74.10687220174691,40.660013841451736]},"properties":{"address":"500 Bayonne Crossing Way","city":"Bayonne","state":"NJ","postalCode":"07002","name":"Walmart Supercenter"}},{"type":"Feature","geometry":{"type":"Point","coordinates":[-74.09369480731347,40.89160570965401]},"properties":{"address":"189 Us Highway 46","city":"Saddle Brook","state":"NJ","postalCode":"07663","name":"Walmart"}},{"type":"Feature","geometry":{"type":"Point","coordinates":[-73.6009955406189,40.74325780467203]},"properties":{"address":"1220 Old Country Rd","city":"Westbury","state":"NY","postalCode":"11590","name":"Walmart"}},{"type":"Feature","geometry":{"type":"Point","coordinates":[-74.30034477047526,40.68733321553561]},"properties":{"address":"900 Springfield Rd","city":"Union","state":"NJ","postalCode":"07083","name":"Walmart"}},{"type":"Feature","geometry":{"type":"Point","coordinates":[-74.10076134387127,40.866628785256104]},"properties":{"address":"174 Passaic St","city":"Garfield","state":"NJ","postalCode":"07026","name":"Walmart Supercenter"}},{"type":"Feature","geometry":{"type":"Point","coordinates":[-73.72609616145313,40.66125056900678]},"properties":{"address":"77 Green Acres Rd","city":"Valley Stream","state":"NY","postalCode":"11581","name":"Walmart Supercenter"}},{"type":"Feature","geometry":{"type":"Point","coordinates":[-74.29376528,40.53548799]},"properties":{"address":"360 Us Highway 9 Route N","city":"Woodbridge","state":"NJ","postalCode":"07095","name":"Walmart"}},{"type":"Feature","geometry":{"type":"Point","coordinates":[-73.54403340410227,40.7266365620357]},"properties":{"address":"2465 Hempstead Tpke","city":"East Meadow","state":"NY","postalCode":"11554","name":"Walmart"}},{"type":"Feature","geometry":{"type":"Point","coordinates":[-74.40394923649639,40.907510211312626]},"properties":{"address":"300 Wootton St","city":"Boonton","state":"NJ","postalCode":"07005","name":"Walmart"}},{"type":"Feature","geometry":{"type":"Point","coordinates":[-74.31193218477517,40.99316114329795]},"properties":{"address":"48 State Rt 23","city":"Riverdale","state":"NJ","postalCode":"07457","name":"Walmart"}},{"type":"Feature","geometry":{"type":"Point","coordinates":[-74.4576212675393,40.80984932073321]},"properties":{"address":"235 Ridgedale Ave","city":"Cedar Knolls","state":"NJ","postalCode":"07927","name":"Walmart"}},{"type":"Feature","geometry":{"type":"Point","coordinates":[-74.37667815511723,40.53191886485612]},"properties":{"address":"2220 State Route 27","city":"Edison","state":"NJ","postalCode":"08817","name":"Walmart"}},{"type":"Feature","geometry":{"type":"Point","coordinates":[-74.24831050694432,40.61276398772027]},"properties":{"address":"1050 W Edgar Rd","city":"Linden","state":"NJ","postalCode":"07036","name":"Walmart Supercenter"}},{"type":"Feature","geometry":{"type":"Point","coordinates":[-74.44079514902113,40.554326805943646]},"properties":{"address":"1303 Centennial Ave","city":"Piscataway","state":"NJ","postalCode":"08854","name":"Walmart"}},{"type":"Feature","geometry":{"type":"Point","coordinates":[-74.3010077716691,40.44822447667566]},"properties":{"address":"1126 Us Highway 9","city":"Old Bridge","state":"NJ","postalCode":"08857","name":"Walmart"}},{"type":"Feature","geometry":{"type":"Point","coordinates":[-74.39903147320209,40.45879386309005]},"properties":{"address":"290 State Route 18","city":"East Brunswick","state":"NJ","postalCode":"08816","name":"Walmart Supercenter"}},{"type":"Feature","geometry":{"type":"Point","coordinates":[-74.4248636751422,40.63809426527327]},"properties":{"address":"1501 Us Highway 22","city":"Watchung","state":"NJ","postalCode":"07069","name":"Walmart"}},{"type":"Feature","geometry":{"type":"Point","coordinates":[-74.10724090089019,41.11301660431022]},"properties":{"address":"250 Route 59","city":"Suffern","state":"NY","postalCode":"10901","name":"Walmart"}},{"type":"Feature","geometry":{"type":"Point","coordinates":[-74.254512,40.61842]},"properties":{"city":"Linden","state":"NJ","postalCode":"07036","name":"Walmart Supercenter Linden"}},{"type":"Feature","geometry":{"type":"Point","coordinates":[-74.31891648164938,40.37393143043812]},"properties":{"address":"2825 Highway Route 18","city":"Old Bridge","state":"NJ","postalCode":"08857","name":"Walmart Supercenter"}},{"type":"Feature","geometry":{"type":"Point","coordinates":[-73.57817632575627,40.695384132187954]},"properties":{"address":"1123 Jerusalem Ave","city":"Uniondale","state":"NY","postalCode":"11553","name":"Walmart"}}]},"Los Angeles, CA":{"type":"FeatureCollection","features":[{"type":"Feature","geometry":{"type":"Point","coordinates":[-118.32562737140495,34.188434455327375]},"properties":{"address":"1301 N Victory Pl","city":"Burbank","state":"CA","postalCode":"91502","name":"Walmart Supercenter"}},{"type":"Feature","geometry":{"type":"Point","coordinates":[-118.08493385246466,34.050545255828396]},"properties":{"address":"1827 Walnut Grove Ave","city":"Rosemead","state":"CA","postalCode":"91770","name":"Walmart Supercenter"}},{"type":"Feature","geometry":{"type":"Point","coordinates":[-118.18758640408245,33.95470020691988]},"properties":{"address":"4651 Firestone Blvd","city":"South Gate","state":"CA","postalCode":"90280","name":"Walmart Supercenter"}},{"type":"Feature","geometry":{"type":"Point","coordinates":[-118.3005502269743,33.85669912000714]},"properties":{"address":"19503 Normandie Ave","city":"Torrance","state":"CA","postalCode":"90501","name":"Walmart"}},{"type":"Feature","geometry":{"type":"Point","coordinates":[-118.12865394062963,33.92428296695667]},"properties":{"address":"9001 Apollo Way","city":"Downey","state":"CA","postalCode":"90242","name":"Walmart Supercenter"}},{"type":"Feature","geometry":{"type":"Point","coordinates":[-118.10363739765306,33.98683598365178]},"properties":{"address":"8500 Washington Blvd","city":"Pico Rivera","state":"CA","postalCode":"90660","name":"Walmart Supercenter"}},{"type":"Feature","geometry":{"type":"Point","coordinates":[-117.98435790877794,34.13417828728171]},"properties":{"address":"1600 Mountain Ave","city":"Duarte","state":"CA","postalCode":"91010","name":"Walmart"}},{"type":"Feature","geometry":{"type":"Point","coordinates":[-118.35327296283248,33.82810213859199]},"properties":{"address":"22015 Hawthorne Blvd","city":"Torrance","state":"CA","postalCode":"90503","name":"Walmart"}},{"type":"Feature","geometry":{"type":"Point","coordinates":[-118.20808003514023,33.91004872619466]},"properties":{"address":"2100 N Long Beach Blvd","city":"Compton","state":"CA","postalCode":"90221","name":"Walmart Supercenter"}},{"type":"Feature","geometry":{"type":"Point","coordinates":[-118.45026261751467,34.22265945945061]},"properties":{"address":"8333 Van Nuys Blvd","city":"Panorama City","state":"CA","postalCode":"91402","name":"Walmart"}},{"type":"Feature","geometry":{"type":"Point","coordinates":[-118.15846193185081,33.83057566795939]},"properties":{"address":"2770 Carson St","city":"Lakewood","state":"CA","postalCode":"90712","name":"Walmart Supercenter"}},{"type":"Feature","geometry":{"type":"Point","coordinates":[-118.06144864685976,33.87230577329827]},"properties":{"address":"12701 Towne Center Dr","city":"Cerritos","state":"CA","postalCode":"90703","name":"Walmart Supercenter"}},{"type":"Feature","geometry":{"type":"Point","coordinates":[-118.14773247944073,33.861217088009454]},"properties":{"address":"3705 E South St","city":"Long Beach","state":"CA","postalCode":"90805","name":"Walmart Supercenter"}},{"type":"Feature","geometry":{"type":"Point","coordinates":[-118.04913103580473,33.94062743857672]},"properties":{"address":"13310 Telegraph Rd","city":"Santa Fe Springs","state":"CA","postalCode":"90670","name":"Walmart Supercenter"}},{"type":"Feature","geometry":{"type":"Point","coordinates":[-117.98658728599548,33.84469912644004]},"properties":{"address":"8450 La Palma Ave","city":"Buena Park","state":"CA","postalCode":"90620","name":"Walmart"}},{"type":"Feature","geometry":{"type":"Point","coordinates":[-117.96636376606044,33.91493030993243]},"properties":{"address":"1340 S Beach Blvd","city":"La Habra","state":"CA","postalCode":"90631","name":"Walmart Supercenter"}},{"type":"Feature","geometry":{"type":"Point","coordinates":[-118.09082376657382,33.829116466088216]},"properties":{"address":"7250 Carson Blvd","city":"Long Beach","state":"CA","postalCode":"90808","name":"Walmart Supercenter"}},{"type":"Feature","geometry":{"type":"Point","coordinates":[-118.14503452916975,33.902185305724885]},"properties":{"address":"14501 Lakewood Blvd","city":"Paramount","state":"CA","postalCode":"90723","name":"Walmart Supercenter"}},{"type":"Feature","geometry":{"type":"Point","coordinates":[-117.96335,34.071179]},"properties":{"address":"3250 Big Dalton Ave","city":"Baldwin Park","state":"CA","postalCode":"91706","name":"Walmart (Walmart Bakery)"}},{"type":"Feature","geometry":{"type":"Point","coordinates":[-117.9631725,34.07175438]},"properties":{"address":"3250 Big Dalton Ave","city":"Baldwin Park","state":"CA","postalCode":"91706","name":"Walmart Supercenter"}},{"type":"Feature","geometry":{"type":"Point","coordinates":[-117.86574062959373,33.91303238677791]},"properties":{"address":"2595 E Imperial Hwy","city":"Brea","state":"CA","postalCode":"92821","name":"Walmart"}},{"type":"Feature","geometry":{"type":"Point","coordinates":[-118.62492738271355,34.188117823192314]},"properties":{"address":"6433 Fallbrook Ave","city":"West Hills","state":"CA","postalCode":"91307","name":"Walmart"}},{"type":"Feature","geometry":{"type":"Point","coordinates":[-117.93247411646713,33.99862674224794]},"properties":{"address":"17150 Gale Ave","city":"Industry","state":"CA","postalCode":"91745","name":"Walmart Supercenter"}},{"type":"Feature","geometry":{"type":"Point","coordinates":[-117.91881005236101,33.85784429015064]},"properties":{"address":"88 E Orangethorpe Ave","city":"Anaheim","state":"CA","postalCode":"92801","name":"Walmart Supercenter"}},{"type":"Feature","geometry":{"type":"Point","coordinates":[-117.90919386785964,34.10296683092714]},"properties":{"address":"1275 N Azusa Ave","city":"Covina","state":"CA","postalCode":"91722","name":"Walmart Supercenter"}},{"type":"Feature","geometry":{"type":"Point","coordinates":[-117.985771341954,33.70006427885469]},"properties":{"address":"8230 Talbert Ave","city":"Huntington Beach","state":"CA","postalCode":"92646","name":"Walmart"}},{"type":"Feature","geometry":{"type":"Point","coordinates":[-117.88687145037164,34.07335464205769]},"properties":{"address":"2753 E. Eastland Center Dr, Ste 5555","city":"West Covina","state":"CA","postalCode":"91791","name":"Walmart Supercenter"}},{"type":"Feature","geometry":{"type":"Point","coordinates":[-117.96480909654242,33.79073523743586]},"properties":{"address":"11822 Gilbert St","city":"Garden Grove","state":"CA","postalCode":"92841","name":"Walmart Supercenter"}},{"type":"Feature","geometry":{"type":"Point","coordinates":[-117.9387416,33.83636364]},"properties":{"address":"440 N Euclid St","city":"Anaheim","state":"CA","postalCode":"92801","name":"Walmart Supercenter"}},{"type":"Feature","geometry":{"type":"Point","coordinates":[-118.56727273471395,34.277221756197704]},"properties":{"address":"19821 Rinaldi St","city":"Porter Ranch","state":"CA","postalCode":"91326","name":"Walmart Supercenter"}}]},"Seattle, WA":{"type":"FeatureCollection","features":[{"type":"Feature","geometry":{"type":"Point","coordinates":[-122.17207523630528,47.57292188987638]},"properties":{"address":"12620 Se 41st Pl","city":"Bellevue","state":"WA","postalCode":"98006","name":"Walmart"}},{"type":"Feature","geometry":{"type":"Point","coordinates":[-122.22051338266492,47.472053744125084]},"properties":{"address":"743 Rainier Avenue South","city":"Renton","state":"WA","postalCode":"98057","name":"Walmart Supercenter"}},{"type":"Feature","geometry":{"type":"Point","coordinates":[-122.63203084983394,47.62499884440013]},"properties":{"address":"6797 State Highway 303 Ne","city":"Bremerton","state":"WA","postalCode":"98311","name":"Walmart"}},{"type":"Feature","geometry":{"type":"Point","coordinates":[-122.25306565478904,47.84842895731361]},"properties":{"address":"1400 164th St Sw","city":"Lynnwood","state":"WA","postalCode":"98087","name":"Walmart"}},{"type":"Feature","geometry":{"type":"Point","coordinates":[-122.62812773108381,47.516513562421146]},"properties":{"address":"3497 Bethel Rd Se","city":"Port Orchard","state":"WA","postalCode":"98366","name":"Walmart Supercenter"}},{"type":"Feature","geometry":{"type":"Point","coordinates":[-122.25602063444755,47.89432087901932]},"properties":{"address":"11400 Highway 99","city":"Everett","state":"WA","postalCode":"98204","name":"Walmart"}},{"type":"Feature","geometry":{"type":"Point","coordinates":[-122.6619351,47.75725724]},"properties":{"address":"21200 Olhava Way Nw","city":"Poulsbo","state":"WA","postalCode":"98370","name":"Walmart Supercenter"}},{"type":"Feature","geometry":{"type":"Point","coordinates":[-122.3093921619174,47.32132560329672]},"properties":{"address":"1900 S 314th St","city":"Federal Way","state":"WA","postalCode":"98003","name":"Walmart"}},{"type":"Feature","geometry":{"type":"Point","coordinates":[-122.10820678488525,47.36084519998767]},"properties":{"address":"17432 Se 270th Pl","city":"Covington","state":"WA","postalCode":"98042","name":"Walmart"}},{"type":"Feature","geometry":{"type":"Point","coordinates":[-122.3105105392719,47.292351381718746]},"properties":{"address":"34520 16th Ave S","city":"Federal Way","state":"WA","postalCode":"98003","name":"Walmart Supercenter"}},{"type":"Feature","geometry":{"type":"Point","coordinates":[-122.21387199327572,47.91415104971558]},"properties":{"address":"1605 Se Everett Mall Way","city":"Everett","state":"WA","postalCode":"98208","name":"Walmart Supercenter"}},{"type":"Feature","geometry":{"type":"Point","coordinates":[-122.24124948371039,47.30165895610171]},"properties":{"address":"762 Outlet Collection Way","city":"Auburn","state":"WA","postalCode":"98001","name":"Walmart Supercenter"}},{"type":"Feature","geometry":{"type":"Point","coordinates":[-121.97246654701362,47.86569132170517]},"properties":{"address":"19191 N Kelsey Street","city":"Monroe","state":"WA","postalCode":"98272","name":"Walmart Supercenter"}},{"type":"Feature","geometry":{"type":"Point","coordinates":[-122.4788200533883,47.23997548765972]},"properties":{"address":"1965 S. Union Ave","city":"Tacoma","state":"WA","postalCode":"98405","name":"Walmart Supercenter"}},{"type":"Feature","geometry":{"type":"Point","coordinates":[-122.2895662383334,47.16085262835043]},"properties":{"address":"310 31st Ave Se","city":"Puyallup","state":"WA","postalCode":"98374","name":"Walmart Supercenter"}},{"type":"Feature","geometry":{"type":"Point","coordinates":[-122.17165237156571,47.16817279493129]},"properties":{"address":"19205 State Route 410 E","city":"Bonney Lake","state":"WA","postalCode":"98391","name":"Walmart Supercenter"}},{"type":"Feature","geometry":{"type":"Point","coordinates":[-122.442269,47.25599]},"properties":{"city":"Tacoma","state":"WA","name":"Walmart"}},{"type":"Feature","geometry":{"type":"Point","coordinates":[-122.2969874330369,47.106019180130346]},"properties":{"address":"16502 Meridian E","city":"Puyallup","state":"WA","postalCode":"98375","name":"Walmart Supercenter"}}]},"San Francisco, CA":{"type":"FeatureCollection","features":[{"type":"Feature","geometry":{"type":"Point","coordinates":[-122.17806717798038,37.71500275706939]},"properties":{"address":"1919 Davis St","city":"San Leandro","state":"CA","postalCode":"94577","name":"Walmart"}},{"type":"Feature","geometry":{"type":"Point","coordinates":[-122.3283503022237,37.97953759018613]},"properties":{"address":"1400 Hilltop Mall Rd","city":"Richmond","state":"CA","postalCode":"94806","name":"Walmart"}},{"type":"Feature","geometry":{"type":"Point","coordinates":[-122.13126499595108,37.68801326782751]},"properties":{"address":"15555 Hesperian Blvd","city":"San Leandro","state":"CA","postalCode":"94579","name":"Walmart"}},{"type":"Feature","geometry":{"type":"Point","coordinates":[-122.06739603615856,37.60432630122944]},"properties":{"address":"30600 Dyer St","city":"Union City","state":"CA","postalCode":"94587","name":"Walmart"}},{"type":"Feature","geometry":{"type":"Point","coordinates":[-122.10932704642103,37.99663833126352]},"properties":{"address":"1021 Arnold Dr","city":"Martinez","state":"CA","postalCode":"94553","name":"Walmart"}},{"type":"Feature","geometry":{"type":"Point","coordinates":[-121.88722952126749,37.697951623793244]},"properties":{"address":"4501 Rosewood Dr","city":"Pleasanton","state":"CA","postalCode":"94588","name":"Walmart"}}]},"San Diego, CA":{"type":"FeatureCollection","features":[{"type":"Feature","geometry":{"type":"Point","coordinates":[-117.164894,32.829575]},"properties":{"address":"4840 Shawline St","city":"San Diego","state":"CA","postalCode":"92111","name":"Walmart"}},{"type":"Feature","geometry":{"type":"Point","coordinates":[-117.09901635174981,32.674631346254245]},"properties":{"address":"1200 Highland Ave","city":"National City","state":"CA","postalCode":"91950","name":"Walmart Supercenter"}},{"type":"Feature","geometry":{"type":"Point","coordinates":[-117.03545,32.58164]},"properties":{"address":"710 Dennery Road","city":"San Diego","state":"CA","postalCode":"92154","name":"Walmart"}},{"type":"Feature","geometry":{"type":"Point","coordinates":[-117.11637,32.805355]},"properties":{"address":"3382 Murphy Canyon Road","city":"San Diego","state":"CA","postalCode":"92123","name":"Walmart"}},{"type":"Feature","geometry":{"type":"Point","coordinates":[-117.08274480987866,32.60693665686558]},"properties":{"address":"1150 Broadway","city":"Chula Vista","state":"CA","postalCode":"91911","name":"Walmart"}},{"type":"Feature","geometry":{"type":"Point","coordinates":[-117.00938866191133,32.77750494335409]},"properties":{"address":"5500 Grossmont Center Dr","city":"La Mesa","state":"CA","postalCode":"91942","name":"Walmart"}},{"type":"Feature","geometry":{"type":"Point","coordinates":[-117.09441335744089,32.651628199014496]},"properties":{"address":"75 North Broadway","city":"Chula Vista","state":"CA","postalCode":"91910","name":"Walmart"}},{"type":"Feature","geometry":{"type":"Point","coordinates":[-117.1188630121908,32.52837320213109]},"properties":{"address":"Av. Parque Mxico Norte No. 320","city":"Tijuana","state":"Baja California","postalCode":"22500","name":"Walmart Playas de Tijuana"}},{"type":"Feature","geometry":{"type":"Point","coordinates":[-117.02484417863486,32.63754410726918]},"properties":{"address":"875 E. H St.","city":"Chula Vista","state":"CA","postalCode":"91910","name":"Walmart Supercenter"}},{"type":"Feature","geometry":{"type":"Point","coordinates":[-116.96778774261475,32.63073741814897]},"properties":{"address":"1360 Eastlake Pkwy","city":"Chula Vista","state":"CA","postalCode":"91915","name":"Walmart Supercenter"}},{"type":"Feature","geometry":{"type":"Point","coordinates":[-117.05330623787376,32.741688552394365]},"properties":{"address":"3412 College Ave","city":"San Diego","state":"CA","postalCode":"92115","name":"Walmart Supercenter"}},{"type":"Feature","geometry":{"type":"Point","coordinates":[-117.00040523650208,32.47425407721456]},"properties":{"address":"Libramiento Oriente 10010","city":"Tijuana","state":"Baja California","postalCode":"22640","name":"Walmart"}},{"type":"Feature","geometry":{"type":"Point","coordinates":[-117.0892059803009,32.586886768858214]},"properties":{"address":"575 Saturn Blvd","city":"San Diego","state":"CA","postalCode":"92154","name":"Walmart"}},{"type":"Feature","geometry":{"type":"Point","coordinates":[-116.99000636049497,32.84242424145322]},"properties":{"address":"170 Town Center Parkway","city":"Santee","state":"CA","postalCode":"92071","name":"Walmart"}},{"type":"Feature","geometry":{"type":"Point","coordinates":[-116.96858084375725,32.8044612715252]},"properties":{"address":"605 Fletcher Pkwy","city":"El Cajon","state":"CA","postalCode":"92020","name":"Walmart"}},{"type":"Feature","geometry":{"type":"Point","coordinates":[-116.9344650292268,32.495584737280424]},"properties":{"address":"Macro Plaza Insurgentes","city":"Tijuana","state":"Baja California","postalCode":"22226","name":"Walmart"}},{"type":"Feature","geometry":{"type":"Point","coordinates":[-116.9457874613347,32.487560464306156]},"properties":{"address":"Blvd. Gustavo Daz Ordaz  #15634 Col. La Joya","city":"Tijuana","state":"Baja California","postalCode":"22115","name":"Walmart"}},{"type":"Feature","geometry":{"type":"Point","coordinates":[-117.03844281290097,32.95907104446527]},"properties":{"address":"13425 Community Road","city":"Poway","state":"CA","postalCode":"92064","name":"Walmart Supercenter"}},{"type":"Feature","geometry":{"type":"Point","coordinates":[-117.0591750465315,32.37842377003324]},"properties":{"address":"Carretera Libre Tijuana Ensenada NO. 300","city":"Rosarito","state":"Baja California","postalCode":"22710","name":"Walmart"}},{"type":"Feature","geometry":{"type":"Point","coordinates":[-116.99286308476701,32.50874587762636]},"properties":{"address":"Tijuana Hipodromo","city":"Tijuana","state":"Baja California","postalCode":"22024","name":"Walmart"}},{"type":"Feature","geometry":{"type":"Point","coordinates":[-116.90156095177646,32.82291815991633]},"properties":{"address":"13487 Camino Canada","city":"El Cajon","state":"CA","postalCode":"92021","name":"Walmart Supercenter"}},{"type":"Feature","geometry":{"type":"Point","coordinates":[-116.83992525469411,32.50871587708012]},"properties":{"address":"Corredor Tijuana-Rosarito 2000 819","city":"Tijuana","state":"Baja California","postalCode":"22235","name":"Walmart"}},{"type":"Feature","geometry":{"type":"Point","coordinates":[-116.86197797989749,32.49208342414868]},"properties":{"address":"Plaza Paseo 2000","city":"Tijuana","state":"Baja California","name":"Walmart"}},{"type":"Feature","geometry":{"type":"Point","coordinates":[-117.12288916110992,33.13533213978926]},"properties":{"address":"732 Center Dr","city":"San Marcos","state":"CA","postalCode":"92069","name":"Walmart"}},{"type":"Feature","geometry":{"type":"Point","coordinates":[-117.26581200103645,33.0690687476308]},"properties":{"address":"1550 Leucadia Blvd","city":"Encinitas","state":"CA","postalCode":"92024","name":"Walmart Supercenter"}},{"type":"Feature","geometry":{"type":"Point","coordinates":[-117.06281557430677,33.1298731796668]},"properties":{"address":"1330 East Grand Avenue","city":"Escondido","state":"CA","postalCode":"92027","name":"Walmart"}},{"type":"Feature","geometry":{"type":"Point","coordinates":[-117.00701,32.479993]},"properties":{"city":"Tijuana","state":"Baja California","name":"Walmart Marquez de leon"}}]}}}